{"type":"FeatureCollection","name":"vietnam_lower_unit_labels","features":[{"type":"Feature","id":"diaphanhanhchinhcapxa_2025.3256","properties":{"id":"diaphanhanhchinhcapxa_2025.3256","code":"00004","name":"Phường Ba Đình","level":"ward","parent_code":"01","parent_name":"Thủ đô Hà Nội","label_lon":105.83806073324634,"label_lat":21.038530004276321,"source_date":"2026-04-16","source_name":"sapnhap-bando-vn mirror of Vietnam Administrative Merger Atlas"},"geometry":{"type":"Point","coordinates":[105.83806073324634,21.038530004276321]}},{"type":"Feature","id":"diaphanhanhchinhcapxa_2025.3199","properties":{"id":"diaphanhanhchinhcapxa_2025.3199","code":"00292","name":"Phường Bạch Mai","level":"ward","parent_code":"01","parent_name":"Thủ đô Hà Nội","label_lon":105.85195894334667,"label_lat":21.002210756121737,"source_date":"2026-04-16","source_name":"sapnhap-bando-vn mirror of Vietnam Administrative Merger Atlas"},"geometry":{"type":"Point","coordinates":[105.85195894334667,21.002210756121737]}},{"type":"Feature","id":"diaphanhanhchinhcapxa_2025.3196","properties":{"id":"diaphanhanhchinhcapxa_2025.3196","code":"00118","name":"Phường Bồ Đề","level":"ward","parent_code":"01","parent_name":"Thủ đô Hà Nội","label_lon":105.87052493204632,"label_lat":21.051365488314712,"source_date":"2026-04-16","source_name":"sapnhap-bando-vn mirror of Vietnam Administrative Merger Atlas"},"geometry":{"type":"Point","coordinates":[105.87052493204632,21.051365488314712]}},{"type":"Feature","id":"diaphanhanhchinhcapxa_2025.3264","properties":{"id":"diaphanhanhchinhcapxa_2025.3264","code":"00166","name":"Phường Cầu Giấy","level":"ward","parent_code":"01","parent_name":"Thủ đô Hà Nội","label_lon":105.78806180301147,"label_lat":21.030914854836933,"source_date":"2026-04-16","source_name":"sapnhap-bando-vn mirror of Vietnam Administrative Merger Atlas"},"geometry":{"type":"Point","coordinates":[105.78806180301147,21.030914854836933]}},{"type":"Feature","id":"diaphanhanhchinhcapxa_2025.3219","properties":{"id":"diaphanhanhchinhcapxa_2025.3219","code":"10015","name":"Phường Chương Mỹ","level":"ward","parent_code":"01","parent_name":"Thủ đô Hà Nội","label_lon":105.69854565846909,"label_lat":20.924878176299512,"source_date":"2026-04-16","source_name":"sapnhap-bando-vn mirror of Vietnam Administrative Merger Atlas"},"geometry":{"type":"Point","coordinates":[105.69854565846909,20.924878176299512]}},{"type":"Feature","id":"diaphanhanhchinhcapxa_2025.3203","properties":{"id":"diaphanhanhchinhcapxa_2025.3203","code":"00082","name":"Phường Cửa Nam","level":"ward","parent_code":"01","parent_name":"Thủ đô Hà Nội","label_lon":105.85074075919668,"label_lat":21.022638639926559,"source_date":"2026-04-16","source_name":"sapnhap-bando-vn mirror of Vietnam Administrative Merger Atlas"},"geometry":{"type":"Point","coordinates":[105.85074075919668,21.022638639926559]}},{"type":"Feature","id":"diaphanhanhchinhcapxa_2025.3267","properties":{"id":"diaphanhanhchinhcapxa_2025.3267","code":"00637","name":"Phường Đại Mỗ","level":"ward","parent_code":"01","parent_name":"Thủ đô Hà Nội","label_lon":105.77535517611037,"label_lat":20.993562181709827,"source_date":"2026-04-16","source_name":"sapnhap-bando-vn mirror of Vietnam Administrative Merger Atlas"},"geometry":{"type":"Point","coordinates":[105.77535517611037,20.993562181709827]}},{"type":"Feature","id":"diaphanhanhchinhcapxa_2025.3187","properties":{"id":"diaphanhanhchinhcapxa_2025.3187","code":"00316","name":"Phường Định Công","level":"ward","parent_code":"01","parent_name":"Thủ đô Hà Nội","label_lon":105.82490277189824,"label_lat":20.976877980847192,"source_date":"2026-04-16","source_name":"sapnhap-bando-vn mirror of Vietnam Administrative Merger Atlas"},"geometry":{"type":"Point","coordinates":[105.82490277189824,20.976877980847192]}},{"type":"Feature","id":"diaphanhanhchinhcapxa_2025.3170","properties":{"id":"diaphanhanhchinhcapxa_2025.3170","code":"00235","name":"Phường Đống Đa","level":"ward","parent_code":"01","parent_name":"Thủ đô Hà Nội","label_lon":105.82177822903812,"label_lat":21.011923029131587,"source_date":"2026-04-16","source_name":"sapnhap-bando-vn mirror of Vietnam Administrative Merger Atlas"},"geometry":{"type":"Point","coordinates":[105.82177822903812,21.011923029131587]}},{"type":"Feature","id":"diaphanhanhchinhcapxa_2025.3269","properties":{"id":"diaphanhanhchinhcapxa_2025.3269","code":"00602","name":"Phường Đông Ngạc","level":"ward","parent_code":"01","parent_name":"Thủ đô Hà Nội","label_lon":105.77591534715042,"label_lat":21.075051526034972,"source_date":"2026-04-16","source_name":"sapnhap-bando-vn mirror of Vietnam Administrative Merger Atlas"},"geometry":{"type":"Point","coordinates":[105.77591534715042,21.075051526034972]}},{"type":"Feature","id":"diaphanhanhchinhcapxa_2025.3178","properties":{"id":"diaphanhanhchinhcapxa_2025.3178","code":"09886","name":"Phường Dương Nội","level":"ward","parent_code":"01","parent_name":"Thủ đô Hà Nội","label_lon":105.7486302254631,"label_lat":20.975165968424921,"source_date":"2026-04-16","source_name":"sapnhap-bando-vn mirror of Vietnam Administrative Merger Atlas"},"geometry":{"type":"Point","coordinates":[105.7486302254631,20.975165968424921]}},{"type":"Feature","id":"diaphanhanhchinhcapxa_2025.3258","properties":{"id":"diaphanhanhchinhcapxa_2025.3258","code":"00025","name":"Phường Giảng Võ","level":"ward","parent_code":"01","parent_name":"Thủ đô Hà Nội","label_lon":105.81425418486214,"label_lat":21.027563167106521,"source_date":"2026-04-16","source_name":"sapnhap-bando-vn mirror of Vietnam Administrative Merger Atlas"},"geometry":{"type":"Point","coordinates":[105.81425418486214,21.027563167106521]}},{"type":"Feature","id":"diaphanhanhchinhcapxa_2025.3174","properties":{"id":"diaphanhanhchinhcapxa_2025.3174","code":"09556","name":"Phường Hà Đông","level":"ward","parent_code":"01","parent_name":"Thủ đô Hà Nội","label_lon":105.77815358283662,"label_lat":20.973486844284469,"source_date":"2026-04-16","source_name":"sapnhap-bando-vn mirror of Vietnam Administrative Merger Atlas"},"geometry":{"type":"Point","coordinates":[105.77815358283662,20.973486844284469]}},{"type":"Feature","id":"diaphanhanhchinhcapxa_2025.3201","properties":{"id":"diaphanhanhchinhcapxa_2025.3201","code":"00256","name":"Phường Hai Bà Trưng","level":"ward","parent_code":"01","parent_name":"Thủ đô Hà Nội","label_lon":105.85189493013264,"label_lat":21.013623703162608,"source_date":"2026-04-16","source_name":"sapnhap-bando-vn mirror of Vietnam Administrative Merger Atlas"},"geometry":{"type":"Point","coordinates":[105.85189493013264,21.013623703162608]}},{"type":"Feature","id":"diaphanhanhchinhcapxa_2025.3202","properties":{"id":"diaphanhanhchinhcapxa_2025.3202","code":"00070","name":"Phường Hoàn Kiếm","level":"ward","parent_code":"01","parent_name":"Thủ đô Hà Nội","label_lon":105.85044788034573,"label_lat":21.032025075938407,"source_date":"2026-04-16","source_name":"sapnhap-bando-vn mirror of Vietnam Administrative Merger Atlas"},"geometry":{"type":"Point","coordinates":[105.85044788034573,21.032025075938407]}},{"type":"Feature","id":"diaphanhanhchinhcapxa_2025.3188","properties":{"id":"diaphanhanhchinhcapxa_2025.3188","code":"00337","name":"Phường Hoàng Liệt","level":"ward","parent_code":"01","parent_name":"Thủ đô Hà Nội","label_lon":105.83168745564888,"label_lat":20.9614897180931,"source_date":"2026-04-16","source_name":"sapnhap-bando-vn mirror of Vietnam Administrative Merger Atlas"},"geometry":{"type":"Point","coordinates":[105.83168745564888,20.9614897180931]}},{"type":"Feature","id":"diaphanhanhchinhcapxa_2025.3190","properties":{"id":"diaphanhanhchinhcapxa_2025.3190","code":"00331","name":"Phường Hoàng Mai","level":"ward","parent_code":"01","parent_name":"Thủ đô Hà Nội","label_lon":105.86181900510864,"label_lat":20.9745803050547,"source_date":"2026-04-16","source_name":"sapnhap-bando-vn mirror of Vietnam Administrative Merger Atlas"},"geometry":{"type":"Point","coordinates":[105.86181900510864,20.9745803050547]}},{"type":"Feature","id":"diaphanhanhchinhcapxa_2025.3169","properties":{"id":"diaphanhanhchinhcapxa_2025.3169","code":"00097","name":"Phường Hồng Hà","level":"ward","parent_code":"01","parent_name":"Thủ đô Hà Nội","label_lon":105.84559274952667,"label_lat":21.0564793060488,"source_date":"2026-04-16","source_name":"sapnhap-bando-vn mirror of Vietnam Administrative Merger Atlas"},"geometry":{"type":"Point","coordinates":[105.84559274952667,21.0564793060488]}},{"type":"Feature","id":"diaphanhanhchinhcapxa_2025.3186","properties":{"id":"diaphanhanhchinhcapxa_2025.3186","code":"00364","name":"Phường Khương Đình","level":"ward","parent_code":"01","parent_name":"Thủ đô Hà Nội","label_lon":105.81488795764966,"label_lat":20.990979839587009,"source_date":"2026-04-16","source_name":"sapnhap-bando-vn mirror of Vietnam Administrative Merger Atlas"},"geometry":{"type":"Point","coordinates":[105.81488795764966,20.990979839587009]}},{"type":"Feature","id":"diaphanhanhchinhcapxa_2025.3179","properties":{"id":"diaphanhanhchinhcapxa_2025.3179","code":"09552","name":"Phường Kiến Hưng","level":"ward","parent_code":"01","parent_name":"Thủ đô Hà Nội","label_lon":105.7795787342932,"label_lat":20.954930263301339,"source_date":"2026-04-16","source_name":"sapnhap-bando-vn mirror of Vietnam Administrative Merger Atlas"},"geometry":{"type":"Point","coordinates":[105.7795787342932,20.954930263301339]}},{"type":"Feature","id":"diaphanhanhchinhcapxa_2025.3206","properties":{"id":"diaphanhanhchinhcapxa_2025.3206","code":"00229","name":"Phường Kim Liên","level":"ward","parent_code":"01","parent_name":"Thủ đô Hà Nội","label_lon":105.83238566993649,"label_lat":21.005653049840223,"source_date":"2026-04-16","source_name":"sapnhap-bando-vn mirror of Vietnam Administrative Merger Atlas"},"geometry":{"type":"Point","coordinates":[105.83238566993649,21.005653049840223]}},{"type":"Feature","id":"diaphanhanhchinhcapxa_2025.3207","properties":{"id":"diaphanhanhchinhcapxa_2025.3207","code":"00199","name":"Phường Láng","level":"ward","parent_code":"01","parent_name":"Thủ đô Hà Nội","label_lon":105.80600785493444,"label_lat":21.021111016137077,"source_date":"2026-04-16","source_name":"sapnhap-bando-vn mirror of Vietnam Administrative Merger Atlas"},"geometry":{"type":"Point","coordinates":[105.80600785493444,21.021111016137077]}},{"type":"Feature","id":"diaphanhanhchinhcapxa_2025.3191","properties":{"id":"diaphanhanhchinhcapxa_2025.3191","code":"00328","name":"Phường Lĩnh Nam","level":"ward","parent_code":"01","parent_name":"Thủ đô Hà Nội","label_lon":105.89112280550616,"label_lat":20.97251920064874,"source_date":"2026-04-16","source_name":"sapnhap-bando-vn mirror of Vietnam Administrative Merger Atlas"},"geometry":{"type":"Point","coordinates":[105.89112280550616,20.97251920064874]}},{"type":"Feature","id":"diaphanhanhchinhcapxa_2025.3171","properties":{"id":"diaphanhanhchinhcapxa_2025.3171","code":"00145","name":"Phường Long Biên","level":"ward","parent_code":"01","parent_name":"Thủ đô Hà Nội","label_lon":105.8961664431768,"label_lat":21.019847026779409,"source_date":"2026-04-16","source_name":"sapnhap-bando-vn mirror of Vietnam Administrative Merger Atlas"},"geometry":{"type":"Point","coordinates":[105.8961664431768,21.019847026779409]}},{"type":"Feature","id":"diaphanhanhchinhcapxa_2025.3262","properties":{"id":"diaphanhanhchinhcapxa_2025.3262","code":"00160","name":"Phường Nghĩa Đô","level":"ward","parent_code":"01","parent_name":"Thủ đô Hà Nội","label_lon":105.79440136625809,"label_lat":21.045091304497166,"source_date":"2026-04-16","source_name":"sapnhap-bando-vn mirror of Vietnam Administrative Merger Atlas"},"geometry":{"type":"Point","coordinates":[105.79440136625809,21.045091304497166]}},{"type":"Feature","id":"diaphanhanhchinhcapxa_2025.3257","properties":{"id":"diaphanhanhchinhcapxa_2025.3257","code":"00008","name":"Phường Ngọc Hà","level":"ward","parent_code":"01","parent_name":"Thủ đô Hà Nội","label_lon":105.81631517699316,"label_lat":21.038124333634219,"source_date":"2026-04-16","source_name":"sapnhap-bando-vn mirror of Vietnam Administrative Merger Atlas"},"geometry":{"type":"Point","coordinates":[105.81631517699316,21.038124333634219]}},{"type":"Feature","id":"diaphanhanhchinhcapxa_2025.3204","properties":{"id":"diaphanhanhchinhcapxa_2025.3204","code":"00190","name":"Phường Ô Chợ Dừa","level":"ward","parent_code":"01","parent_name":"Thủ đô Hà Nội","label_lon":105.82576153304517,"label_lat":21.023274750901329,"source_date":"2026-04-16","source_name":"sapnhap-bando-vn mirror of Vietnam Administrative Merger Atlas"},"geometry":{"type":"Point","coordinates":[105.82576153304517,21.023274750901329]}},{"type":"Feature","id":"diaphanhanhchinhcapxa_2025.3271","properties":{"id":"diaphanhanhchinhcapxa_2025.3271","code":"00619","name":"Phường Phú Diễn","level":"ward","parent_code":"01","parent_name":"Thủ đô Hà Nội","label_lon":105.7657733000141,"label_lat":21.048875162528503,"source_date":"2026-04-16","source_name":"sapnhap-bando-vn mirror of Vietnam Administrative Merger Atlas"},"geometry":{"type":"Point","coordinates":[105.7657733000141,21.048875162528503]}},{"type":"Feature","id":"diaphanhanhchinhcapxa_2025.3181","properties":{"id":"diaphanhanhchinhcapxa_2025.3181","code":"09568","name":"Phường Phú Lương","level":"ward","parent_code":"01","parent_name":"Thủ đô Hà Nội","label_lon":105.76645661807596,"label_lat":20.939428384934871,"source_date":"2026-04-16","source_name":"sapnhap-bando-vn mirror of Vietnam Administrative Merger Atlas"},"geometry":{"type":"Point","coordinates":[105.76645661807596,20.939428384934871]}},{"type":"Feature","id":"diaphanhanhchinhcapxa_2025.3259","properties":{"id":"diaphanhanhchinhcapxa_2025.3259","code":"00091","name":"Phường Phú Thượng","level":"ward","parent_code":"01","parent_name":"Thủ đô Hà Nội","label_lon":105.80193817730709,"label_lat":21.086015363717344,"source_date":"2026-04-16","source_name":"sapnhap-bando-vn mirror of Vietnam Administrative Merger Atlas"},"geometry":{"type":"Point","coordinates":[105.80193817730709,21.086015363717344]}},{"type":"Feature","id":"diaphanhanhchinhcapxa_2025.3198","properties":{"id":"diaphanhanhchinhcapxa_2025.3198","code":"00136","name":"Phường Phúc Lợi","level":"ward","parent_code":"01","parent_name":"Thủ đô Hà Nội","label_lon":105.91863523405053,"label_lat":21.042303858238427,"source_date":"2026-04-16","source_name":"sapnhap-bando-vn mirror of Vietnam Administrative Merger Atlas"},"geometry":{"type":"Point","coordinates":[105.91863523405053,21.042303858238427]}},{"type":"Feature","id":"diaphanhanhchinhcapxa_2025.3184","properties":{"id":"diaphanhanhchinhcapxa_2025.3184","code":"00352","name":"Phường Phương Liệt","level":"ward","parent_code":"01","parent_name":"Thủ đô Hà Nội","label_lon":105.83184372688136,"label_lat":20.992562129392741,"source_date":"2026-04-16","source_name":"sapnhap-bando-vn mirror of Vietnam Administrative Merger Atlas"},"geometry":{"type":"Point","coordinates":[105.83184372688136,20.992562129392741]}},{"type":"Feature","id":"diaphanhanhchinhcapxa_2025.3238","properties":{"id":"diaphanhanhchinhcapxa_2025.3238","code":"09574","name":"Phường Sơn Tây","level":"ward","parent_code":"01","parent_name":"Thủ đô Hà Nội","label_lon":105.48970593619872,"label_lat":21.144229727844472,"source_date":"2026-04-16","source_name":"sapnhap-bando-vn mirror of Vietnam Administrative Merger Atlas"},"geometry":{"type":"Point","coordinates":[105.48970593619872,21.144229727844472]}},{"type":"Feature","id":"diaphanhanhchinhcapxa_2025.3260","properties":{"id":"diaphanhanhchinhcapxa_2025.3260","code":"00103","name":"Phường Tây Hồ","level":"ward","parent_code":"01","parent_name":"Thủ đô Hà Nội","label_lon":105.8202219944863,"label_lat":21.057973108420455,"source_date":"2026-04-16","source_name":"sapnhap-bando-vn mirror of Vietnam Administrative Merger Atlas"},"geometry":{"type":"Point","coordinates":[105.8202219944863,21.057973108420455]}},{"type":"Feature","id":"diaphanhanhchinhcapxa_2025.3273","properties":{"id":"diaphanhanhchinhcapxa_2025.3273","code":"00634","name":"Phường Tây Mỗ","level":"ward","parent_code":"01","parent_name":"Thủ đô Hà Nội","label_lon":105.74720589031465,"label_lat":21.000882743949575,"source_date":"2026-04-16","source_name":"sapnhap-bando-vn mirror of Vietnam Administrative Merger Atlas"},"geometry":{"type":"Point","coordinates":[105.74720589031465,21.000882743949575]}},{"type":"Feature","id":"diaphanhanhchinhcapxa_2025.3270","properties":{"id":"diaphanhanhchinhcapxa_2025.3270","code":"00613","name":"Phường Tây Tựu","level":"ward","parent_code":"01","parent_name":"Thủ đô Hà Nội","label_lon":105.73893645513988,"label_lat":21.064140010737713,"source_date":"2026-04-16","source_name":"sapnhap-bando-vn mirror of Vietnam Administrative Merger Atlas"},"geometry":{"type":"Point","coordinates":[105.73893645513988,21.064140010737713]}},{"type":"Feature","id":"diaphanhanhchinhcapxa_2025.3182","properties":{"id":"diaphanhanhchinhcapxa_2025.3182","code":"00643","name":"Phường Thanh Liệt","level":"ward","parent_code":"01","parent_name":"Thủ đô Hà Nội","label_lon":105.80614665213804,"label_lat":20.970221245682943,"source_date":"2026-04-16","source_name":"sapnhap-bando-vn mirror of Vietnam Administrative Merger Atlas"},"geometry":{"type":"Point","coordinates":[105.80614665213804,20.970221245682943]}},{"type":"Feature","id":"diaphanhanhchinhcapxa_2025.3185","properties":{"id":"diaphanhanhchinhcapxa_2025.3185","code":"00367","name":"Phường Thanh Xuân","level":"ward","parent_code":"01","parent_name":"Thủ đô Hà Nội","label_lon":105.80461545939228,"label_lat":20.999488349428653,"source_date":"2026-04-16","source_name":"sapnhap-bando-vn mirror of Vietnam Administrative Merger Atlas"},"geometry":{"type":"Point","coordinates":[105.80461545939228,20.999488349428653]}},{"type":"Feature","id":"diaphanhanhchinhcapxa_2025.3268","properties":{"id":"diaphanhanhchinhcapxa_2025.3268","code":"00598","name":"Phường Thượng Cát","level":"ward","parent_code":"01","parent_name":"Thủ đô Hà Nội","label_lon":105.7497277520518,"label_lat":21.086588306018424,"source_date":"2026-04-16","source_name":"sapnhap-bando-vn mirror of Vietnam Administrative Merger Atlas"},"geometry":{"type":"Point","coordinates":[105.7497277520518,21.086588306018424]}},{"type":"Feature","id":"diaphanhanhchinhcapxa_2025.3263","properties":{"id":"diaphanhanhchinhcapxa_2025.3263","code":"00592","name":"Phường Từ Liêm","level":"ward","parent_code":"01","parent_name":"Thủ đô Hà Nội","label_lon":105.77073190472152,"label_lat":21.020338277392483,"source_date":"2026-04-16","source_name":"sapnhap-bando-vn mirror of Vietnam Administrative Merger Atlas"},"geometry":{"type":"Point","coordinates":[105.77073190472152,21.020338277392483]}},{"type":"Feature","id":"diaphanhanhchinhcapxa_2025.3231","properties":{"id":"diaphanhanhchinhcapxa_2025.3231","code":"09604","name":"Phường Tùng Thiện","level":"ward","parent_code":"01","parent_name":"Thủ đô Hà Nội","label_lon":105.45776114990744,"label_lat":21.12138022780919,"source_date":"2026-04-16","source_name":"sapnhap-bando-vn mirror of Vietnam Administrative Merger Atlas"},"geometry":{"type":"Point","coordinates":[105.45776114990744,21.12138022780919]}},{"type":"Feature","id":"diaphanhanhchinhcapxa_2025.3173","properties":{"id":"diaphanhanhchinhcapxa_2025.3173","code":"00322","name":"Phường Tương Mai","level":"ward","parent_code":"01","parent_name":"Thủ đô Hà Nội","label_lon":105.85366473719776,"label_lat":20.989351142399364,"source_date":"2026-04-16","source_name":"sapnhap-bando-vn mirror of Vietnam Administrative Merger Atlas"},"geometry":{"type":"Point","coordinates":[105.85366473719776,20.989351142399364]}},{"type":"Feature","id":"diaphanhanhchinhcapxa_2025.3205","properties":{"id":"diaphanhanhchinhcapxa_2025.3205","code":"00226","name":"Phường Văn Miếu - Quốc Tử Giám","level":"ward","parent_code":"01","parent_name":"Thủ đô Hà Nội","label_lon":105.83710653102996,"label_lat":21.019941231645117,"source_date":"2026-04-16","source_name":"sapnhap-bando-vn mirror of Vietnam Administrative Merger Atlas"},"geometry":{"type":"Point","coordinates":[105.83710653102996,21.019941231645117]}},{"type":"Feature","id":"diaphanhanhchinhcapxa_2025.3197","properties":{"id":"diaphanhanhchinhcapxa_2025.3197","code":"00127","name":"Phường Việt Hưng","level":"ward","parent_code":"01","parent_name":"Thủ đô Hà Nội","label_lon":105.9039463819764,"label_lat":21.064840826555852,"source_date":"2026-04-16","source_name":"sapnhap-bando-vn mirror of Vietnam Administrative Merger Atlas"},"geometry":{"type":"Point","coordinates":[105.9039463819764,21.064840826555852]}},{"type":"Feature","id":"diaphanhanhchinhcapxa_2025.3192","properties":{"id":"diaphanhanhchinhcapxa_2025.3192","code":"00301","name":"Phường Vĩnh Hưng","level":"ward","parent_code":"01","parent_name":"Thủ đô Hà Nội","label_lon":105.8826644917022,"label_lat":20.990626848698454,"source_date":"2026-04-16","source_name":"sapnhap-bando-vn mirror of Vietnam Administrative Merger Atlas"},"geometry":{"type":"Point","coordinates":[105.8826644917022,20.990626848698454]}},{"type":"Feature","id":"diaphanhanhchinhcapxa_2025.3200","properties":{"id":"diaphanhanhchinhcapxa_2025.3200","code":"00283","name":"Phường Vĩnh Tuy","level":"ward","parent_code":"01","parent_name":"Thủ đô Hà Nội","label_lon":105.86734262143956,"label_lat":20.998063010220221,"source_date":"2026-04-16","source_name":"sapnhap-bando-vn mirror of Vietnam Administrative Merger Atlas"},"geometry":{"type":"Point","coordinates":[105.86734262143956,20.998063010220221]}},{"type":"Feature","id":"diaphanhanhchinhcapxa_2025.3261","properties":{"id":"diaphanhanhchinhcapxa_2025.3261","code":"00611","name":"Phường Xuân Đỉnh","level":"ward","parent_code":"01","parent_name":"Thủ đô Hà Nội","label_lon":105.79505080701961,"label_lat":21.064443188813044,"source_date":"2026-04-16","source_name":"sapnhap-bando-vn mirror of Vietnam Administrative Merger Atlas"},"geometry":{"type":"Point","coordinates":[105.79505080701961,21.064443188813044]}},{"type":"Feature","id":"diaphanhanhchinhcapxa_2025.3266","properties":{"id":"diaphanhanhchinhcapxa_2025.3266","code":"00622","name":"Phường Xuân Phương","level":"ward","parent_code":"01","parent_name":"Thủ đô Hà Nội","label_lon":105.74510020897624,"label_lat":21.02955100521957,"source_date":"2026-04-16","source_name":"sapnhap-bando-vn mirror of Vietnam Administrative Merger Atlas"},"geometry":{"type":"Point","coordinates":[105.74510020897624,21.02955100521957]}},{"type":"Feature","id":"diaphanhanhchinhcapxa_2025.3265","properties":{"id":"diaphanhanhchinhcapxa_2025.3265","code":"00175","name":"Phường Yên Hòa","level":"ward","parent_code":"01","parent_name":"Thủ đô Hà Nội","label_lon":105.79618494872214,"label_lat":21.01386588514081,"source_date":"2026-04-16","source_name":"sapnhap-bando-vn mirror of Vietnam Administrative Merger Atlas"},"geometry":{"type":"Point","coordinates":[105.79618494872214,21.01386588514081]}},{"type":"Feature","id":"diaphanhanhchinhcapxa_2025.3180","properties":{"id":"diaphanhanhchinhcapxa_2025.3180","code":"09562","name":"Phường Yên Nghĩa","level":"ward","parent_code":"01","parent_name":"Thủ đô Hà Nội","label_lon":105.7360486633566,"label_lat":20.939153652490816,"source_date":"2026-04-16","source_name":"sapnhap-bando-vn mirror of Vietnam Administrative Merger Atlas"},"geometry":{"type":"Point","coordinates":[105.7360486633566,20.939153652490816]}},{"type":"Feature","id":"diaphanhanhchinhcapxa_2025.3189","properties":{"id":"diaphanhanhchinhcapxa_2025.3189","code":"00340","name":"Phường Yên Sở","level":"ward","parent_code":"01","parent_name":"Thủ đô Hà Nội","label_lon":105.8571926281565,"label_lat":20.95675008854089,"source_date":"2026-04-16","source_name":"sapnhap-bando-vn mirror of Vietnam Administrative Merger Atlas"},"geometry":{"type":"Point","coordinates":[105.8571926281565,20.95675008854089]}},{"type":"Feature","id":"diaphanhanhchinhcapxa_2025.3272","properties":{"id":"diaphanhanhchinhcapxa_2025.3272","code":"09877","name":"Xã An Khánh","level":"commune","parent_code":"01","parent_name":"Thủ đô Hà Nội","label_lon":105.7078875675863,"label_lat":20.987788037432018,"source_date":"2026-04-16","source_name":"sapnhap-bando-vn mirror of Vietnam Administrative Merger Atlas"},"geometry":{"type":"Point","coordinates":[105.7078875675863,20.987788037432018]}},{"type":"Feature","id":"diaphanhanhchinhcapxa_2025.3227","properties":{"id":"diaphanhanhchinhcapxa_2025.3227","code":"09700","name":"Xã Ba Vì","level":"commune","parent_code":"01","parent_name":"Thủ đô Hà Nội","label_lon":105.34154483915842,"label_lat":21.05809419643716,"source_date":"2026-04-16","source_name":"sapnhap-bando-vn mirror of Vietnam Administrative Merger Atlas"},"geometry":{"type":"Point","coordinates":[105.34154483915842,21.05809419643716]}},{"type":"Feature","id":"diaphanhanhchinhcapxa_2025.3234","properties":{"id":"diaphanhanhchinhcapxa_2025.3234","code":"09676","name":"Xã Bất Bạt","level":"commune","parent_code":"01","parent_name":"Thủ đô Hà Nội","label_lon":105.33231365216382,"label_lat":21.167423007579607,"source_date":"2026-04-16","source_name":"sapnhap-bando-vn mirror of Vietnam Administrative Merger Atlas"},"geometry":{"type":"Point","coordinates":[105.33231365216382,21.167423007579607]}},{"type":"Feature","id":"diaphanhanhchinhcapxa_2025.3193","properties":{"id":"diaphanhanhchinhcapxa_2025.3193","code":"00577","name":"Xã Bát Tràng","level":"commune","parent_code":"01","parent_name":"Thủ đô Hà Nội","label_lon":105.91185608244004,"label_lat":20.969141918559817,"source_date":"2026-04-16","source_name":"sapnhap-bando-vn mirror of Vietnam Administrative Merger Atlas"},"geometry":{"type":"Point","coordinates":[105.91185608244004,20.969141918559817]}},{"type":"Feature","id":"diaphanhanhchinhcapxa_2025.3168","properties":{"id":"diaphanhanhchinhcapxa_2025.3168","code":"10126","name":"Xã Bình Minh","level":"commune","parent_code":"01","parent_name":"Thủ đô Hà Nội","label_lon":105.76184179061174,"label_lat":20.904171582732019,"source_date":"2026-04-16","source_name":"sapnhap-bando-vn mirror of Vietnam Administrative Merger Atlas"},"geometry":{"type":"Point","coordinates":[105.76184179061174,20.904171582732019]}},{"type":"Feature","id":"diaphanhanhchinhcapxa_2025.3164","properties":{"id":"diaphanhanhchinhcapxa_2025.3164","code":"10237","name":"Xã Chương Dương","level":"commune","parent_code":"01","parent_name":"Thủ đô Hà Nội","label_lon":105.9007962697692,"label_lat":20.835351984080116,"source_date":"2026-04-16","source_name":"sapnhap-bando-vn mirror of Vietnam Administrative Merger Atlas"},"geometry":{"type":"Point","coordinates":[105.9007962697692,20.835351984080116]}},{"type":"Feature","id":"diaphanhanhchinhcapxa_2025.3159","properties":{"id":"diaphanhanhchinhcapxa_2025.3159","code":"10330","name":"Xã Chuyên Mỹ","level":"commune","parent_code":"01","parent_name":"Thủ đô Hà Nội","label_lon":105.88366219956336,"label_lat":20.716266091441707,"source_date":"2026-04-16","source_name":"sapnhap-bando-vn mirror of Vietnam Administrative Merger Atlas"},"geometry":{"type":"Point","coordinates":[105.88366219956336,20.716266091441707]}},{"type":"Feature","id":"diaphanhanhchinhcapxa_2025.3237","properties":{"id":"diaphanhanhchinhcapxa_2025.3237","code":"09634","name":"Xã Cổ Đô","level":"commune","parent_code":"01","parent_name":"Thủ đô Hà Nội","label_lon":105.39738720242764,"label_lat":21.268806118643759,"source_date":"2026-04-16","source_name":"sapnhap-bando-vn mirror of Vietnam Administrative Merger Atlas"},"geometry":{"type":"Point","coordinates":[105.39738720242764,21.268806118643759]}},{"type":"Feature","id":"diaphanhanhchinhcapxa_2025.3252","properties":{"id":"diaphanhanhchinhcapxa_2025.3252","code":"00430","name":"Xã Đa Phúc","level":"commune","parent_code":"01","parent_name":"Thủ đô Hà Nội","label_lon":105.90056242743552,"label_lat":21.250497731685662,"source_date":"2026-04-16","source_name":"sapnhap-bando-vn mirror of Vietnam Administrative Merger Atlas"},"geometry":{"type":"Point","coordinates":[105.90056242743552,21.250497731685662]}},{"type":"Feature","id":"diaphanhanhchinhcapxa_2025.3175","properties":{"id":"diaphanhanhchinhcapxa_2025.3175","code":"00664","name":"Xã Đại Thanh","level":"commune","parent_code":"01","parent_name":"Thủ đô Hà Nội","label_lon":105.814415208994,"label_lat":20.93706874376841,"source_date":"2026-04-16","source_name":"sapnhap-bando-vn mirror of Vietnam Administrative Merger Atlas"},"geometry":{"type":"Point","coordinates":[105.814415208994,20.93706874376841]}},{"type":"Feature","id":"diaphanhanhchinhcapxa_2025.3275","properties":{"id":"diaphanhanhchinhcapxa_2025.3275","code":"10342","name":"Xã Đại Xuyên","level":"commune","parent_code":"01","parent_name":"Thủ đô Hà Nội","label_lon":105.94936017708534,"label_lat":20.700622922433471,"source_date":"2026-04-16","source_name":"sapnhap-bando-vn mirror of Vietnam Administrative Merger Atlas"},"geometry":{"type":"Point","coordinates":[105.94936017708534,20.700622922433471]}},{"type":"Feature","id":"diaphanhanhchinhcapxa_2025.3161","properties":{"id":"diaphanhanhchinhcapxa_2025.3161","code":"10180","name":"Xã Dân Hòa","level":"commune","parent_code":"01","parent_name":"Thủ đô Hà Nội","label_lon":105.79212227951662,"label_lat":20.809595377161344,"source_date":"2026-04-16","source_name":"sapnhap-bando-vn mirror of Vietnam Administrative Merger Atlas"},"geometry":{"type":"Point","coordinates":[105.79212227951662,20.809595377161344]}},{"type":"Feature","id":"diaphanhanhchinhcapxa_2025.3278","properties":{"id":"diaphanhanhchinhcapxa_2025.3278","code":"09784","name":"Xã Đan Phượng","level":"commune","parent_code":"01","parent_name":"Thủ đô Hà Nội","label_lon":105.66600799890804,"label_lat":21.09122119150117,"source_date":"2026-04-16","source_name":"sapnhap-bando-vn mirror of Vietnam Administrative Merger Atlas"},"geometry":{"type":"Point","coordinates":[105.66600799890804,21.09122119150117]}},{"type":"Feature","id":"diaphanhanhchinhcapxa_2025.3225","properties":{"id":"diaphanhanhchinhcapxa_2025.3225","code":"09616","name":"Xã Đoài Phương","level":"commune","parent_code":"01","parent_name":"Thủ đô Hà Nội","label_lon":105.48611308279663,"label_lat":21.068693652791559,"source_date":"2026-04-16","source_name":"sapnhap-bando-vn mirror of Vietnam Administrative Merger Atlas"},"geometry":{"type":"Point","coordinates":[105.48611308279663,21.068693652791559]}},{"type":"Feature","id":"diaphanhanhchinhcapxa_2025.3244","properties":{"id":"diaphanhanhchinhcapxa_2025.3244","code":"00454","name":"Xã Đông Anh","level":"commune","parent_code":"01","parent_name":"Thủ đô Hà Nội","label_lon":105.8716066066489,"label_lat":21.110091224365359,"source_date":"2026-04-16","source_name":"sapnhap-bando-vn mirror of Vietnam Administrative Merger Atlas"},"geometry":{"type":"Point","coordinates":[105.8716066066489,21.110091224365359]}},{"type":"Feature","id":"diaphanhanhchinhcapxa_2025.3241","properties":{"id":"diaphanhanhchinhcapxa_2025.3241","code":"09856","name":"Xã Dương Hòa","level":"commune","parent_code":"01","parent_name":"Thủ đô Hà Nội","label_lon":105.67264008139632,"label_lat":21.048905852893416,"source_date":"2026-04-16","source_name":"sapnhap-bando-vn mirror of Vietnam Administrative Merger Atlas"},"geometry":{"type":"Point","coordinates":[105.67264008139632,21.048905852893416]}},{"type":"Feature","id":"diaphanhanhchinhcapxa_2025.3194","properties":{"id":"diaphanhanhchinhcapxa_2025.3194","code":"00565","name":"Xã Gia Lâm","level":"commune","parent_code":"01","parent_name":"Thủ đô Hà Nội","label_lon":105.9486600727204,"label_lat":21.002790206887255,"source_date":"2026-04-16","source_name":"sapnhap-bando-vn mirror of Vietnam Administrative Merger Atlas"},"geometry":{"type":"Point","coordinates":[105.9486600727204,21.002790206887255]}},{"type":"Feature","id":"diaphanhanhchinhcapxa_2025.3283","properties":{"id":"diaphanhanhchinhcapxa_2025.3283","code":"09982","name":"Xã Hạ Bằng","level":"commune","parent_code":"01","parent_name":"Thủ đô Hà Nội","label_lon":105.56110293818476,"label_lat":21.02025663506117,"source_date":"2026-04-16","source_name":"sapnhap-bando-vn mirror of Vietnam Administrative Merger Atlas"},"geometry":{"type":"Point","coordinates":[105.56110293818476,21.02025663506117]}},{"type":"Feature","id":"diaphanhanhchinhcapxa_2025.3229","properties":{"id":"diaphanhanhchinhcapxa_2025.3229","code":"09772","name":"Xã Hát Môn","level":"commune","parent_code":"01","parent_name":"Thủ đô Hà Nội","label_lon":105.62280332007911,"label_lat":21.089621334587157,"source_date":"2026-04-16","source_name":"sapnhap-bando-vn mirror of Vietnam Administrative Merger Atlas"},"geometry":{"type":"Point","coordinates":[105.62280332007911,21.089621334587157]}},{"type":"Feature","id":"diaphanhanhchinhcapxa_2025.3282","properties":{"id":"diaphanhanhchinhcapxa_2025.3282","code":"09988","name":"Xã Hòa Lạc","level":"commune","parent_code":"01","parent_name":"Thủ đô Hà Nội","label_lon":105.51308152398764,"label_lat":21.012209660543025,"source_date":"2026-04-16","source_name":"sapnhap-bando-vn mirror of Vietnam Administrative Merger Atlas"},"geometry":{"type":"Point","coordinates":[105.51308152398764,21.012209660543025]}},{"type":"Feature","id":"diaphanhanhchinhcapxa_2025.3216","properties":{"id":"diaphanhanhchinhcapxa_2025.3216","code":"10096","name":"Xã Hòa Phú","level":"commune","parent_code":"01","parent_name":"Thủ đô Hà Nội","label_lon":105.71682179656216,"label_lat":20.828615688448213,"source_date":"2026-04-16","source_name":"sapnhap-bando-vn mirror of Vietnam Administrative Merger Atlas"},"geometry":{"type":"Point","coordinates":[105.71682179656216,20.828615688448213]}},{"type":"Feature","id":"diaphanhanhchinhcapxa_2025.3208","properties":{"id":"diaphanhanhchinhcapxa_2025.3208","code":"10417","name":"Xã Hòa Xá","level":"commune","parent_code":"01","parent_name":"Thủ đô Hà Nội","label_lon":105.79033821042169,"label_lat":20.667372544534881,"source_date":"2026-04-16","source_name":"sapnhap-bando-vn mirror of Vietnam Administrative Merger Atlas"},"geometry":{"type":"Point","coordinates":[105.79033821042169,20.667372544534881]}},{"type":"Feature","id":"diaphanhanhchinhcapxa_2025.3279","properties":{"id":"diaphanhanhchinhcapxa_2025.3279","code":"09832","name":"Xã Hoài Đức","level":"commune","parent_code":"01","parent_name":"Thủ đô Hà Nội","label_lon":105.70486674277949,"label_lat":21.062017612621,"source_date":"2026-04-16","source_name":"sapnhap-bando-vn mirror of Vietnam Administrative Merger Atlas"},"geometry":{"type":"Point","coordinates":[105.70486674277949,21.062017612621]}},{"type":"Feature","id":"diaphanhanhchinhcapxa_2025.3212","properties":{"id":"diaphanhanhchinhcapxa_2025.3212","code":"10465","name":"Xã Hồng Sơn","level":"commune","parent_code":"01","parent_name":"Thủ đô Hà Nội","label_lon":105.70560331141134,"label_lat":20.715874554599289,"source_date":"2026-04-16","source_name":"sapnhap-bando-vn mirror of Vietnam Administrative Merger Atlas"},"geometry":{"type":"Point","coordinates":[105.70560331141134,20.715874554599289]}},{"type":"Feature","id":"diaphanhanhchinhcapxa_2025.3167","properties":{"id":"diaphanhanhchinhcapxa_2025.3167","code":"10210","name":"Xã Hồng Vân","level":"commune","parent_code":"01","parent_name":"Thủ đô Hà Nội","label_lon":105.88781128674464,"label_lat":20.879833821906089,"source_date":"2026-04-16","source_name":"sapnhap-bando-vn mirror of Vietnam Administrative Merger Atlas"},"geometry":{"type":"Point","coordinates":[105.88781128674464,20.879833821906089]}},{"type":"Feature","id":"diaphanhanhchinhcapxa_2025.3223","properties":{"id":"diaphanhanhchinhcapxa_2025.3223","code":"09931","name":"Xã Hưng Đạo","level":"commune","parent_code":"01","parent_name":"Thủ đô Hà Nội","label_lon":105.67028419587297,"label_lat":20.967370108786263,"source_date":"2026-04-16","source_name":"sapnhap-bando-vn mirror of Vietnam Administrative Merger Atlas"},"geometry":{"type":"Point","coordinates":[105.67028419587297,20.967370108786263]}},{"type":"Feature","id":"diaphanhanhchinhcapxa_2025.3209","properties":{"id":"diaphanhanhchinhcapxa_2025.3209","code":"10489","name":"Xã Hương Sơn","level":"commune","parent_code":"01","parent_name":"Thủ đô Hà Nội","label_lon":105.76294390990172,"label_lat":20.619249617511898,"source_date":"2026-04-16","source_name":"sapnhap-bando-vn mirror of Vietnam Administrative Merger Atlas"},"geometry":{"type":"Point","coordinates":[105.76294390990172,20.619249617511898]}},{"type":"Feature","id":"diaphanhanhchinhcapxa_2025.3222","properties":{"id":"diaphanhanhchinhcapxa_2025.3222","code":"09910","name":"Xã Kiều Phú","level":"commune","parent_code":"01","parent_name":"Thủ đô Hà Nội","label_lon":105.6071014646792,"label_lat":20.975417383945786,"source_date":"2026-04-16","source_name":"sapnhap-bando-vn mirror of Vietnam Administrative Merger Atlas"},"geometry":{"type":"Point","coordinates":[105.6071014646792,20.975417383945786]}},{"type":"Feature","id":"diaphanhanhchinhcapxa_2025.3254","properties":{"id":"diaphanhanhchinhcapxa_2025.3254","code":"00382","name":"Xã Kim Anh","level":"commune","parent_code":"01","parent_name":"Thủ đô Hà Nội","label_lon":105.76617122808597,"label_lat":21.283486390278288,"source_date":"2026-04-16","source_name":"sapnhap-bando-vn mirror of Vietnam Administrative Merger Atlas"},"geometry":{"type":"Point","coordinates":[105.76617122808597,21.283486390278288]}},{"type":"Feature","id":"diaphanhanhchinhcapxa_2025.3274","properties":{"id":"diaphanhanhchinhcapxa_2025.3274","code":"09787","name":"Xã Liên Minh","level":"commune","parent_code":"01","parent_name":"Thủ đô Hà Nội","label_lon":105.64589496195836,"label_lat":21.127927688757939,"source_date":"2026-04-16","source_name":"sapnhap-bando-vn mirror of Vietnam Administrative Merger Atlas"},"geometry":{"type":"Point","coordinates":[105.64589496195836,21.127927688757939]}},{"type":"Feature","id":"diaphanhanhchinhcapxa_2025.3248","properties":{"id":"diaphanhanhchinhcapxa_2025.3248","code":"09022","name":"Xã Mê Linh","level":"commune","parent_code":"01","parent_name":"Thủ đô Hà Nội","label_lon":105.732920996522,"label_lat":21.150783164129837,"source_date":"2026-04-16","source_name":"sapnhap-bando-vn mirror of Vietnam Administrative Merger Atlas"},"geometry":{"type":"Point","coordinates":[105.732920996522,21.150783164129837]}},{"type":"Feature","id":"diaphanhanhchinhcapxa_2025.3277","properties":{"id":"diaphanhanhchinhcapxa_2025.3277","code":"09661","name":"Xã Minh Châu","level":"commune","parent_code":"01","parent_name":"Thủ đô Hà Nội","label_lon":105.45343960799688,"label_lat":21.212345086702385,"source_date":"2026-04-16","source_name":"sapnhap-bando-vn mirror of Vietnam Administrative Merger Atlas"},"geometry":{"type":"Point","coordinates":[105.45343960799688,21.212345086702385]}},{"type":"Feature","id":"diaphanhanhchinhcapxa_2025.3210","properties":{"id":"diaphanhanhchinhcapxa_2025.3210","code":"10441","name":"Xã Mỹ Đức","level":"commune","parent_code":"01","parent_name":"Thủ đô Hà Nội","label_lon":105.71756222451756,"label_lat":20.65564031867703,"source_date":"2026-04-16","source_name":"sapnhap-bando-vn mirror of Vietnam Administrative Merger Atlas"},"geometry":{"type":"Point","coordinates":[105.71756222451756,20.65564031867703]}},{"type":"Feature","id":"diaphanhanhchinhcapxa_2025.3176","properties":{"id":"diaphanhanhchinhcapxa_2025.3176","code":"00685","name":"Xã Nam Phù","level":"commune","parent_code":"01","parent_name":"Thủ đô Hà Nội","label_lon":105.8837823415243,"label_lat":20.919832474136115,"source_date":"2026-04-16","source_name":"sapnhap-bando-vn mirror of Vietnam Administrative Merger Atlas"},"geometry":{"type":"Point","coordinates":[105.8837823415243,20.919832474136115]}},{"type":"Feature","id":"diaphanhanhchinhcapxa_2025.3177","properties":{"id":"diaphanhanhchinhcapxa_2025.3177","code":"00679","name":"Xã Ngọc Hồi","level":"commune","parent_code":"01","parent_name":"Thủ đô Hà Nội","label_lon":105.83703912115382,"label_lat":20.912349338487623,"source_date":"2026-04-16","source_name":"sapnhap-bando-vn mirror of Vietnam Administrative Merger Atlas"},"geometry":{"type":"Point","coordinates":[105.83703912115382,20.912349338487623]}},{"type":"Feature","id":"diaphanhanhchinhcapxa_2025.3253","properties":{"id":"diaphanhanhchinhcapxa_2025.3253","code":"00433","name":"Xã Nội Bài","level":"commune","parent_code":"01","parent_name":"Thủ đô Hà Nội","label_lon":105.79465640641148,"label_lat":21.230801255691823,"source_date":"2026-04-16","source_name":"sapnhap-bando-vn mirror of Vietnam Administrative Merger Atlas"},"geometry":{"type":"Point","coordinates":[105.79465640641148,21.230801255691823]}},{"type":"Feature","id":"diaphanhanhchinhcapxa_2025.3242","properties":{"id":"diaphanhanhchinhcapxa_2025.3242","code":"09817","name":"Xã Ô Diên","level":"commune","parent_code":"01","parent_name":"Thủ đô Hà Nội","label_lon":105.70410911945748,"label_lat":21.1094106737185,"source_date":"2026-04-16","source_name":"sapnhap-bando-vn mirror of Vietnam Administrative Merger Atlas"},"geometry":{"type":"Point","coordinates":[105.70410911945748,21.1094106737185]}},{"type":"Feature","id":"diaphanhanhchinhcapxa_2025.3221","properties":{"id":"diaphanhanhchinhcapxa_2025.3221","code":"09952","name":"Xã Phú Cát","level":"commune","parent_code":"01","parent_name":"Thủ đô Hà Nội","label_lon":105.56055741082264,"label_lat":20.946065101906793,"source_date":"2026-04-16","source_name":"sapnhap-bando-vn mirror of Vietnam Administrative Merger Atlas"},"geometry":{"type":"Point","coordinates":[105.56055741082264,20.946065101906793]}},{"type":"Feature","id":"diaphanhanhchinhcapxa_2025.3172","properties":{"id":"diaphanhanhchinhcapxa_2025.3172","code":"00541","name":"Xã Phù Đổng","level":"commune","parent_code":"01","parent_name":"Thủ đô Hà Nội","label_lon":105.94505546662224,"label_lat":21.0740811734488,"source_date":"2026-04-16","source_name":"sapnhap-bando-vn mirror of Vietnam Administrative Merger Atlas"},"geometry":{"type":"Point","coordinates":[105.94505546662224,21.0740811734488]}},{"type":"Feature","id":"diaphanhanhchinhcapxa_2025.3220","properties":{"id":"diaphanhanhchinhcapxa_2025.3220","code":"10030","name":"Xã Phú Nghĩa","level":"commune","parent_code":"01","parent_name":"Thủ đô Hà Nội","label_lon":105.64187213620266,"label_lat":20.918206856485583,"source_date":"2026-04-16","source_name":"sapnhap-bando-vn mirror of Vietnam Administrative Merger Atlas"},"geometry":{"type":"Point","coordinates":[105.64187213620266,20.918206856485583]}},{"type":"Feature","id":"diaphanhanhchinhcapxa_2025.3158","properties":{"id":"diaphanhanhchinhcapxa_2025.3158","code":"10273","name":"Xã Phú Xuyên","level":"commune","parent_code":"01","parent_name":"Thủ đô Hà Nội","label_lon":105.91746447739182,"label_lat":20.764166543367079,"source_date":"2026-04-16","source_name":"sapnhap-bando-vn mirror of Vietnam Administrative Merger Atlas"},"geometry":{"type":"Point","coordinates":[105.91746447739182,20.764166543367079]}},{"type":"Feature","id":"diaphanhanhchinhcapxa_2025.3233","properties":{"id":"diaphanhanhchinhcapxa_2025.3233","code":"09739","name":"Xã Phúc Lộc","level":"commune","parent_code":"01","parent_name":"Thủ đô Hà Nội","label_lon":105.57475668679844,"label_lat":21.146755338620107,"source_date":"2026-04-16","source_name":"sapnhap-bando-vn mirror of Vietnam Administrative Merger Atlas"},"geometry":{"type":"Point","coordinates":[105.57475668679844,21.146755338620107]}},{"type":"Feature","id":"diaphanhanhchinhcapxa_2025.3215","properties":{"id":"diaphanhanhchinhcapxa_2025.3215","code":"10459","name":"Xã Phúc Sơn","level":"commune","parent_code":"01","parent_name":"Thủ đô Hà Nội","label_lon":105.6811976045794,"label_lat":20.781075242314326,"source_date":"2026-04-16","source_name":"sapnhap-bando-vn mirror of Vietnam Administrative Merger Atlas"},"geometry":{"type":"Point","coordinates":[105.6811976045794,20.781075242314326]}},{"type":"Feature","id":"diaphanhanhchinhcapxa_2025.3247","properties":{"id":"diaphanhanhchinhcapxa_2025.3247","code":"00466","name":"Xã Phúc Thịnh","level":"commune","parent_code":"01","parent_name":"Thủ đô Hà Nội","label_lon":105.81537533580996,"label_lat":21.1622758375546,"source_date":"2026-04-16","source_name":"sapnhap-bando-vn mirror of Vietnam Administrative Merger Atlas"},"geometry":{"type":"Point","coordinates":[105.81537533580996,21.1622758375546]}},{"type":"Feature","id":"diaphanhanhchinhcapxa_2025.3230","properties":{"id":"diaphanhanhchinhcapxa_2025.3230","code":"09715","name":"Xã Phúc Thọ","level":"commune","parent_code":"01","parent_name":"Thủ đô Hà Nội","label_lon":105.55462283335451,"label_lat":21.110333835752911,"source_date":"2026-04-16","source_name":"sapnhap-bando-vn mirror of Vietnam Administrative Merger Atlas"},"geometry":{"type":"Point","coordinates":[105.55462283335451,21.110333835752911]}},{"type":"Feature","id":"diaphanhanhchinhcapxa_2025.3160","properties":{"id":"diaphanhanhchinhcapxa_2025.3160","code":"10279","name":"Xã Phượng Dực","level":"commune","parent_code":"01","parent_name":"Thủ đô Hà Nội","label_lon":105.83685156894678,"label_lat":20.772139455987961,"source_date":"2026-04-16","source_name":"sapnhap-bando-vn mirror of Vietnam Administrative Merger Atlas"},"geometry":{"type":"Point","coordinates":[105.83685156894678,20.772139455987961]}},{"type":"Feature","id":"diaphanhanhchinhcapxa_2025.3218","properties":{"id":"diaphanhanhchinhcapxa_2025.3218","code":"10072","name":"Xã Quảng Bị","level":"commune","parent_code":"01","parent_name":"Thủ đô Hà Nội","label_lon":105.70276705624006,"label_lat":20.873084173093854,"source_date":"2026-04-16","source_name":"sapnhap-bando-vn mirror of Vietnam Administrative Merger Atlas"},"geometry":{"type":"Point","coordinates":[105.70276705624006,20.873084173093854]}},{"type":"Feature","id":"diaphanhanhchinhcapxa_2025.3249","properties":{"id":"diaphanhanhchinhcapxa_2025.3249","code":"08974","name":"Xã Quang Minh","level":"commune","parent_code":"01","parent_name":"Thủ đô Hà Nội","label_lon":105.75127750838251,"label_lat":21.192629408585692,"source_date":"2026-04-16","source_name":"sapnhap-bando-vn mirror of Vietnam Administrative Merger Atlas"},"geometry":{"type":"Point","coordinates":[105.75127750838251,21.192629408585692]}},{"type":"Feature","id":"diaphanhanhchinhcapxa_2025.3235","properties":{"id":"diaphanhanhchinhcapxa_2025.3235","code":"09619","name":"Xã Quảng Oai","level":"commune","parent_code":"01","parent_name":"Thủ đô Hà Nội","label_lon":105.42761873405664,"label_lat":21.174552929873148,"source_date":"2026-04-16","source_name":"sapnhap-bando-vn mirror of Vietnam Administrative Merger Atlas"},"geometry":{"type":"Point","coordinates":[105.42761873405664,21.174552929873148]}},{"type":"Feature","id":"diaphanhanhchinhcapxa_2025.3239","properties":{"id":"diaphanhanhchinhcapxa_2025.3239","code":"09895","name":"Xã Quốc Oai","level":"commune","parent_code":"01","parent_name":"Thủ đô Hà Nội","label_lon":105.64971069978574,"label_lat":21.011603290567507,"source_date":"2026-04-16","source_name":"sapnhap-bando-vn mirror of Vietnam Administrative Merger Atlas"},"geometry":{"type":"Point","coordinates":[105.64971069978574,21.011603290567507]}},{"type":"Feature","id":"diaphanhanhchinhcapxa_2025.3251","properties":{"id":"diaphanhanhchinhcapxa_2025.3251","code":"00376","name":"Xã Sóc Sơn","level":"commune","parent_code":"01","parent_name":"Thủ đô Hà Nội","label_lon":105.84939798643192,"label_lat":21.246305579705052,"source_date":"2026-04-16","source_name":"sapnhap-bando-vn mirror of Vietnam Administrative Merger Atlas"},"geometry":{"type":"Point","coordinates":[105.84939798643192,21.246305579705052]}},{"type":"Feature","id":"diaphanhanhchinhcapxa_2025.3240","properties":{"id":"diaphanhanhchinhcapxa_2025.3240","code":"09871","name":"Xã Sơn Đồng","level":"commune","parent_code":"01","parent_name":"Thủ đô Hà Nội","label_lon":105.70474345104056,"label_lat":21.02417806924068,"source_date":"2026-04-16","source_name":"sapnhap-bando-vn mirror of Vietnam Administrative Merger Atlas"},"geometry":{"type":"Point","coordinates":[105.70474345104056,21.02417806924068]}},{"type":"Feature","id":"diaphanhanhchinhcapxa_2025.3232","properties":{"id":"diaphanhanhchinhcapxa_2025.3232","code":"09694","name":"Xã Suối Hai","level":"commune","parent_code":"01","parent_name":"Thủ đô Hà Nội","label_lon":105.37745768483,"label_lat":21.123991328442493,"source_date":"2026-04-16","source_name":"sapnhap-bando-vn mirror of Vietnam Administrative Merger Atlas"},"geometry":{"type":"Point","coordinates":[105.37745768483,21.123991328442493]}},{"type":"Feature","id":"diaphanhanhchinhcapxa_2025.3165","properties":{"id":"diaphanhanhchinhcapxa_2025.3165","code":"10144","name":"Xã Tam Hưng","level":"commune","parent_code":"01","parent_name":"Thủ đô Hà Nội","label_lon":105.79847427716186,"label_lat":20.875806385569547,"source_date":"2026-04-16","source_name":"sapnhap-bando-vn mirror of Vietnam Administrative Merger Atlas"},"geometry":{"type":"Point","coordinates":[105.79847427716186,20.875806385569547]}},{"type":"Feature","id":"diaphanhanhchinhcapxa_2025.3226","properties":{"id":"diaphanhanhchinhcapxa_2025.3226","code":"10003","name":"Xã Tây Phương","level":"commune","parent_code":"01","parent_name":"Thủ đô Hà Nội","label_lon":105.61154514926235,"label_lat":21.036528094199976,"source_date":"2026-04-16","source_name":"sapnhap-bando-vn mirror of Vietnam Administrative Merger Atlas"},"geometry":{"type":"Point","coordinates":[105.61154514926235,21.036528094199976]}},{"type":"Feature","id":"diaphanhanhchinhcapxa_2025.3228","properties":{"id":"diaphanhanhchinhcapxa_2025.3228","code":"09955","name":"Xã Thạch Thất","level":"commune","parent_code":"01","parent_name":"Thủ đô Hà Nội","label_lon":105.56214981615889,"label_lat":21.069175474143012,"source_date":"2026-04-16","source_name":"sapnhap-bando-vn mirror of Vietnam Administrative Merger Atlas"},"geometry":{"type":"Point","coordinates":[105.56214981615889,21.069175474143012]}},{"type":"Feature","id":"diaphanhanhchinhcapxa_2025.3163","properties":{"id":"diaphanhanhchinhcapxa_2025.3163","code":"10114","name":"Xã Thanh Oai","level":"commune","parent_code":"01","parent_name":"Thủ đô Hà Nội","label_lon":105.7665575441672,"label_lat":20.846659971677056,"source_date":"2026-04-16","source_name":"sapnhap-bando-vn mirror of Vietnam Administrative Merger Atlas"},"geometry":{"type":"Point","coordinates":[105.7665575441672,20.846659971677056]}},{"type":"Feature","id":"diaphanhanhchinhcapxa_2025.3183","properties":{"id":"diaphanhanhchinhcapxa_2025.3183","code":"00640","name":"Xã Thanh Trì","level":"commune","parent_code":"01","parent_name":"Thủ đô Hà Nội","label_lon":105.8593843713285,"label_lat":20.938831610593414,"source_date":"2026-04-16","source_name":"sapnhap-bando-vn mirror of Vietnam Administrative Merger Atlas"},"geometry":{"type":"Point","coordinates":[105.8593843713285,20.938831610593414]}},{"type":"Feature","id":"diaphanhanhchinhcapxa_2025.3245","properties":{"id":"diaphanhanhchinhcapxa_2025.3245","code":"00493","name":"Xã Thiên Lộc","level":"commune","parent_code":"01","parent_name":"Thủ đô Hà Nội","label_lon":105.77153588374389,"label_lat":21.124065749822755,"source_date":"2026-04-16","source_name":"sapnhap-bando-vn mirror of Vietnam Administrative Merger Atlas"},"geometry":{"type":"Point","coordinates":[105.77153588374389,21.124065749822755]}},{"type":"Feature","id":"diaphanhanhchinhcapxa_2025.3246","properties":{"id":"diaphanhanhchinhcapxa_2025.3246","code":"00475","name":"Xã Thư Lâm","level":"commune","parent_code":"01","parent_name":"Thủ đô Hà Nội","label_lon":105.88785348279738,"label_lat":21.164789930670832,"source_date":"2026-04-16","source_name":"sapnhap-bando-vn mirror of Vietnam Administrative Merger Atlas"},"geometry":{"type":"Point","coordinates":[105.88785348279738,21.164789930670832]}},{"type":"Feature","id":"diaphanhanhchinhcapxa_2025.3195","properties":{"id":"diaphanhanhchinhcapxa_2025.3195","code":"00562","name":"Xã Thuận An","level":"commune","parent_code":"01","parent_name":"Thủ đô Hà Nội","label_lon":105.98647635694444,"label_lat":21.029934636235215,"source_date":"2026-04-16","source_name":"sapnhap-bando-vn mirror of Vietnam Administrative Merger Atlas"},"geometry":{"type":"Point","coordinates":[105.98647635694444,21.029934636235215]}},{"type":"Feature","id":"diaphanhanhchinhcapxa_2025.3162","properties":{"id":"diaphanhanhchinhcapxa_2025.3162","code":"10231","name":"Xã Thượng Phúc","level":"commune","parent_code":"01","parent_name":"Thủ đô Hà Nội","label_lon":105.85545049881472,"label_lat":20.829869112209209,"source_date":"2026-04-16","source_name":"sapnhap-bando-vn mirror of Vietnam Administrative Merger Atlas"},"geometry":{"type":"Point","coordinates":[105.85545049881472,20.829869112209209]}},{"type":"Feature","id":"diaphanhanhchinhcapxa_2025.3166","properties":{"id":"diaphanhanhchinhcapxa_2025.3166","code":"10183","name":"Xã Thường Tín","level":"commune","parent_code":"01","parent_name":"Thủ đô Hà Nội","label_lon":105.84129991440857,"label_lat":20.876972497378723,"source_date":"2026-04-16","source_name":"sapnhap-bando-vn mirror of Vietnam Administrative Merger Atlas"},"geometry":{"type":"Point","coordinates":[105.84129991440857,20.876972497378723]}},{"type":"Feature","id":"diaphanhanhchinhcapxa_2025.3250","properties":{"id":"diaphanhanhchinhcapxa_2025.3250","code":"08995","name":"Xã Tiến Thắng","level":"commune","parent_code":"01","parent_name":"Thủ đô Hà Nội","label_lon":105.69036374059095,"label_lat":21.210611640281719,"source_date":"2026-04-16","source_name":"sapnhap-bando-vn mirror of Vietnam Administrative Merger Atlas"},"geometry":{"type":"Point","coordinates":[105.69036374059095,21.210611640281719]}},{"type":"Feature","id":"diaphanhanhchinhcapxa_2025.3276","properties":{"id":"diaphanhanhchinhcapxa_2025.3276","code":"10081","name":"Xã Trần Phú","level":"commune","parent_code":"01","parent_name":"Thủ đô Hà Nội","label_lon":105.65018350398159,"label_lat":20.842393247920953,"source_date":"2026-04-16","source_name":"sapnhap-bando-vn mirror of Vietnam Administrative Merger Atlas"},"geometry":{"type":"Point","coordinates":[105.65018350398159,20.842393247920953]}},{"type":"Feature","id":"diaphanhanhchinhcapxa_2025.3255","properties":{"id":"diaphanhanhchinhcapxa_2025.3255","code":"00385","name":"Xã Trung Giã","level":"commune","parent_code":"01","parent_name":"Thủ đô Hà Nội","label_lon":105.83082881233656,"label_lat":21.331728211293559,"source_date":"2026-04-16","source_name":"sapnhap-bando-vn mirror of Vietnam Administrative Merger Atlas"},"geometry":{"type":"Point","coordinates":[105.83082881233656,21.331728211293559]}},{"type":"Feature","id":"diaphanhanhchinhcapxa_2025.3211","properties":{"id":"diaphanhanhchinhcapxa_2025.3211","code":"10402","name":"Xã Ứng Hòa","level":"commune","parent_code":"01","parent_name":"Thủ đô Hà Nội","label_lon":105.84809513994634,"label_lat":20.688834087353552,"source_date":"2026-04-16","source_name":"sapnhap-bando-vn mirror of Vietnam Administrative Merger Atlas"},"geometry":{"type":"Point","coordinates":[105.84809513994634,20.688834087353552]}},{"type":"Feature","id":"diaphanhanhchinhcapxa_2025.3214","properties":{"id":"diaphanhanhchinhcapxa_2025.3214","code":"10369","name":"Xã Ứng Thiên","level":"commune","parent_code":"01","parent_name":"Thủ đô Hà Nội","label_lon":105.7585763709592,"label_lat":20.774072253383498,"source_date":"2026-04-16","source_name":"sapnhap-bando-vn mirror of Vietnam Administrative Merger Atlas"},"geometry":{"type":"Point","coordinates":[105.7585763709592,20.774072253383498]}},{"type":"Feature","id":"diaphanhanhchinhcapxa_2025.3213","properties":{"id":"diaphanhanhchinhcapxa_2025.3213","code":"10354","name":"Xã Vân Đình","level":"commune","parent_code":"01","parent_name":"Thủ đô Hà Nội","label_lon":105.76640621014978,"label_lat":20.735098375735586,"source_date":"2026-04-16","source_name":"sapnhap-bando-vn mirror of Vietnam Administrative Merger Atlas"},"geometry":{"type":"Point","coordinates":[105.76640621014978,20.735098375735586]}},{"type":"Feature","id":"diaphanhanhchinhcapxa_2025.3236","properties":{"id":"diaphanhanhchinhcapxa_2025.3236","code":"09664","name":"Xã Vật Lại","level":"commune","parent_code":"01","parent_name":"Thủ đô Hà Nội","label_lon":105.39110264860609,"label_lat":21.217142596220945,"source_date":"2026-04-16","source_name":"sapnhap-bando-vn mirror of Vietnam Administrative Merger Atlas"},"geometry":{"type":"Point","coordinates":[105.39110264860609,21.217142596220945]}},{"type":"Feature","id":"diaphanhanhchinhcapxa_2025.3280","properties":{"id":"diaphanhanhchinhcapxa_2025.3280","code":"00508","name":"Xã Vĩnh Thanh","level":"commune","parent_code":"01","parent_name":"Thủ đô Hà Nội","label_lon":105.8178424888292,"label_lat":21.107735331179754,"source_date":"2026-04-16","source_name":"sapnhap-bando-vn mirror of Vietnam Administrative Merger Atlas"},"geometry":{"type":"Point","coordinates":[105.8178424888292,21.107735331179754]}},{"type":"Feature","id":"diaphanhanhchinhcapxa_2025.3217","properties":{"id":"diaphanhanhchinhcapxa_2025.3217","code":"10045","name":"Xã Xuân Mai","level":"commune","parent_code":"01","parent_name":"Thủ đô Hà Nội","label_lon":105.5932647629659,"label_lat":20.87280040102327,"source_date":"2026-04-16","source_name":"sapnhap-bando-vn mirror of Vietnam Administrative Merger Atlas"},"geometry":{"type":"Point","coordinates":[105.5932647629659,20.87280040102327]}},{"type":"Feature","id":"diaphanhanhchinhcapxa_2025.3281","properties":{"id":"diaphanhanhchinhcapxa_2025.3281","code":"09706","name":"Xã Yên Bài","level":"commune","parent_code":"01","parent_name":"Thủ đô Hà Nội","label_lon":105.41902361032048,"label_lat":21.053759179720078,"source_date":"2026-04-16","source_name":"sapnhap-bando-vn mirror of Vietnam Administrative Merger Atlas"},"geometry":{"type":"Point","coordinates":[105.41902361032048,21.053759179720078]}},{"type":"Feature","id":"diaphanhanhchinhcapxa_2025.3243","properties":{"id":"diaphanhanhchinhcapxa_2025.3243","code":"08980","name":"Xã Yên Lãng","level":"commune","parent_code":"01","parent_name":"Thủ đô Hà Nội","label_lon":105.66169215753668,"label_lat":21.172197431287543,"source_date":"2026-04-16","source_name":"sapnhap-bando-vn mirror of Vietnam Administrative Merger Atlas"},"geometry":{"type":"Point","coordinates":[105.66169215753668,21.172197431287543]}},{"type":"Feature","id":"diaphanhanhchinhcapxa_2025.3224","properties":{"id":"diaphanhanhchinhcapxa_2025.3224","code":"04930","name":"Xã Yên Xuân","level":"commune","parent_code":"01","parent_name":"Thủ đô Hà Nội","label_lon":105.47005103409938,"label_lat":20.978014920185007,"source_date":"2026-04-16","source_name":"sapnhap-bando-vn mirror of Vietnam Administrative Merger Atlas"},"geometry":{"type":"Point","coordinates":[105.47005103409938,20.978014920185007]}},{"type":"Feature","id":"diaphanhanhchinhcapxa_2025.1203","properties":{"id":"diaphanhanhchinhcapxa_2025.1203","code":"05533","name":"Phường Bá Xuyên","level":"ward","parent_code":"19","parent_name":"Tỉnh Thái Nguyên","label_lon":105.820533158262,"label_lat":21.483618875099818,"source_date":"2026-04-16","source_name":"sapnhap-bando-vn mirror of Vietnam Administrative Merger Atlas"},"geometry":{"type":"Point","coordinates":[105.820533158262,21.483618875099818]}},{"type":"Feature","id":"diaphanhanhchinhcapxa_2025.1240","properties":{"id":"diaphanhanhchinhcapxa_2025.1240","code":"01843","name":"Phường Bắc Kạn","level":"ward","parent_code":"19","parent_name":"Tỉnh Thái Nguyên","label_lon":105.85983717750292,"label_lat":22.108502494237833,"source_date":"2026-04-16","source_name":"sapnhap-bando-vn mirror of Vietnam Administrative Merger Atlas"},"geometry":{"type":"Point","coordinates":[105.85983717750292,22.108502494237833]}},{"type":"Feature","id":"diaphanhanhchinhcapxa_2025.1202","properties":{"id":"diaphanhanhchinhcapxa_2025.1202","code":"05528","name":"Phường Bách Quang","level":"ward","parent_code":"19","parent_name":"Tỉnh Thái Nguyên","label_lon":105.86795980225524,"label_lat":21.506257401667281,"source_date":"2026-04-16","source_name":"sapnhap-bando-vn mirror of Vietnam Administrative Merger Atlas"},"geometry":{"type":"Point","coordinates":[105.86795980225524,21.506257401667281]}},{"type":"Feature","id":"diaphanhanhchinhcapxa_2025.1241","properties":{"id":"diaphanhanhchinhcapxa_2025.1241","code":"01840","name":"Phường Đức Xuân","level":"ward","parent_code":"19","parent_name":"Tỉnh Thái Nguyên","label_lon":105.84976879175584,"label_lat":22.165838125707982,"source_date":"2026-04-16","source_name":"sapnhap-bando-vn mirror of Vietnam Administrative Merger Atlas"},"geometry":{"type":"Point","coordinates":[105.84976879175584,22.165838125707982]}},{"type":"Feature","id":"diaphanhanhchinhcapxa_2025.1187","properties":{"id":"diaphanhanhchinhcapxa_2025.1187","code":"05467","name":"Phường Gia Sàng","level":"ward","parent_code":"19","parent_name":"Tỉnh Thái Nguyên","label_lon":105.88183079441551,"label_lat":21.562113594118131,"source_date":"2026-04-16","source_name":"sapnhap-bando-vn mirror of Vietnam Administrative Merger Atlas"},"geometry":{"type":"Point","coordinates":[105.88183079441551,21.562113594118131]}},{"type":"Feature","id":"diaphanhanhchinhcapxa_2025.1192","properties":{"id":"diaphanhanhchinhcapxa_2025.1192","code":"05710","name":"Phường Linh Sơn","level":"ward","parent_code":"19","parent_name":"Tỉnh Thái Nguyên","label_lon":105.85721363190008,"label_lat":21.613060312980743,"source_date":"2026-04-16","source_name":"sapnhap-bando-vn mirror of Vietnam Administrative Merger Atlas"},"geometry":{"type":"Point","coordinates":[105.85721363190008,21.613060312980743]}},{"type":"Feature","id":"diaphanhanhchinhcapxa_2025.1186","properties":{"id":"diaphanhanhchinhcapxa_2025.1186","code":"05443","name":"Phường Phan Đình Phùng","level":"ward","parent_code":"19","parent_name":"Tỉnh Thái Nguyên","label_lon":105.83377428515882,"label_lat":21.588734447839403,"source_date":"2026-04-16","source_name":"sapnhap-bando-vn mirror of Vietnam Administrative Merger Atlas"},"geometry":{"type":"Point","coordinates":[105.83377428515882,21.588734447839403]}},{"type":"Feature","id":"diaphanhanhchinhcapxa_2025.1230","properties":{"id":"diaphanhanhchinhcapxa_2025.1230","code":"05860","name":"Phường Phổ Yên","level":"ward","parent_code":"19","parent_name":"Tỉnh Thái Nguyên","label_lon":105.86820446794056,"label_lat":21.4371819294886,"source_date":"2026-04-16","source_name":"sapnhap-bando-vn mirror of Vietnam Administrative Merger Atlas"},"geometry":{"type":"Point","coordinates":[105.86820446794056,21.4371819294886]}},{"type":"Feature","id":"diaphanhanhchinhcapxa_2025.1231","properties":{"id":"diaphanhanhchinhcapxa_2025.1231","code":"05857","name":"Phường Phúc Thuận","level":"ward","parent_code":"19","parent_name":"Tỉnh Thái Nguyên","label_lon":105.76481050261826,"label_lat":21.452133526647906,"source_date":"2026-04-16","source_name":"sapnhap-bando-vn mirror of Vietnam Administrative Merger Atlas"},"geometry":{"type":"Point","coordinates":[105.76481050261826,21.452133526647906]}},{"type":"Feature","id":"diaphanhanhchinhcapxa_2025.1185","properties":{"id":"diaphanhanhchinhcapxa_2025.1185","code":"05482","name":"Phường Quan Triều","level":"ward","parent_code":"19","parent_name":"Tỉnh Thái Nguyên","label_lon":105.79543365539919,"label_lat":21.630131701039549,"source_date":"2026-04-16","source_name":"sapnhap-bando-vn mirror of Vietnam Administrative Merger Atlas"},"geometry":{"type":"Point","coordinates":[105.79543365539919,21.630131701039549]}},{"type":"Feature","id":"diaphanhanhchinhcapxa_2025.1189","properties":{"id":"diaphanhanhchinhcapxa_2025.1189","code":"05455","name":"Phường Quyết Thắng","level":"ward","parent_code":"19","parent_name":"Tỉnh Thái Nguyên","label_lon":105.7936904586782,"label_lat":21.581880400781049,"source_date":"2026-04-16","source_name":"sapnhap-bando-vn mirror of Vietnam Administrative Merger Atlas"},"geometry":{"type":"Point","coordinates":[105.7936904586782,21.581880400781049]}},{"type":"Feature","id":"diaphanhanhchinhcapxa_2025.1201","properties":{"id":"diaphanhanhchinhcapxa_2025.1201","code":"05518","name":"Phường Sông Công","level":"ward","parent_code":"19","parent_name":"Tỉnh Thái Nguyên","label_lon":105.84899868208736,"label_lat":21.457935718596943,"source_date":"2026-04-16","source_name":"sapnhap-bando-vn mirror of Vietnam Administrative Merger Atlas"},"geometry":{"type":"Point","coordinates":[105.84899868208736,21.457935718596943]}},{"type":"Feature","id":"diaphanhanhchinhcapxa_2025.1190","properties":{"id":"diaphanhanhchinhcapxa_2025.1190","code":"05500","name":"Phường Tích Lương","level":"ward","parent_code":"19","parent_name":"Tỉnh Thái Nguyên","label_lon":105.850729678272,"label_lat":21.543180995358668,"source_date":"2026-04-16","source_name":"sapnhap-bando-vn mirror of Vietnam Administrative Merger Atlas"},"geometry":{"type":"Point","coordinates":[105.850729678272,21.543180995358668]}},{"type":"Feature","id":"diaphanhanhchinhcapxa_2025.1234","properties":{"id":"diaphanhanhchinhcapxa_2025.1234","code":"05899","name":"Phường Trung Thành","level":"ward","parent_code":"19","parent_name":"Tỉnh Thái Nguyên","label_lon":105.88052849207736,"label_lat":21.359453670385889,"source_date":"2026-04-16","source_name":"sapnhap-bando-vn mirror of Vietnam Administrative Merger Atlas"},"geometry":{"type":"Point","coordinates":[105.88052849207736,21.359453670385889]}},{"type":"Feature","id":"diaphanhanhchinhcapxa_2025.1232","properties":{"id":"diaphanhanhchinhcapxa_2025.1232","code":"05890","name":"Phường Vạn Xuân","level":"ward","parent_code":"19","parent_name":"Tỉnh Thái Nguyên","label_lon":105.89801475229368,"label_lat":21.398379331385012,"source_date":"2026-04-16","source_name":"sapnhap-bando-vn mirror of Vietnam Administrative Merger Atlas"},"geometry":{"type":"Point","coordinates":[105.89801475229368,21.398379331385012]}},{"type":"Feature","id":"diaphanhanhchinhcapxa_2025.1198","properties":{"id":"diaphanhanhchinhcapxa_2025.1198","code":"05809","name":"Xã An Khánh","level":"commune","parent_code":"19","parent_name":"Tỉnh Thái Nguyên","label_lon":105.72225581814396,"label_lat":21.627600428950331,"source_date":"2026-04-16","source_name":"sapnhap-bando-vn mirror of Vietnam Administrative Merger Atlas"},"geometry":{"type":"Point","coordinates":[105.72225581814396,21.627600428950331]}},{"type":"Feature","id":"diaphanhanhchinhcapxa_2025.1169","properties":{"id":"diaphanhanhchinhcapxa_2025.1169","code":"01906","name":"Xã Ba Bể","level":"commune","parent_code":"19","parent_name":"Tỉnh Thái Nguyên","label_lon":105.62715810413847,"label_lat":22.438467374393714,"source_date":"2026-04-16","source_name":"sapnhap-bando-vn mirror of Vietnam Administrative Merger Atlas"},"geometry":{"type":"Point","coordinates":[105.62715810413847,22.438467374393714]}},{"type":"Feature","id":"diaphanhanhchinhcapxa_2025.1253","properties":{"id":"diaphanhanhchinhcapxa_2025.1253","code":"02014","name":"Xã Bạch Thông","level":"commune","parent_code":"19","parent_name":"Tỉnh Thái Nguyên","label_lon":105.70707970505768,"label_lat":22.138078076401751,"source_date":"2026-04-16","source_name":"sapnhap-bando-vn mirror of Vietnam Administrative Merger Atlas"},"geometry":{"type":"Point","coordinates":[105.70707970505768,22.138078076401751]}},{"type":"Feature","id":"diaphanhanhchinhcapxa_2025.1164","properties":{"id":"diaphanhanhchinhcapxa_2025.1164","code":"01864","name":"Xã Bằng Thành","level":"commune","parent_code":"19","parent_name":"Tỉnh Thái Nguyên","label_lon":105.67148552619412,"label_lat":22.6576084431277,"source_date":"2026-04-16","source_name":"sapnhap-bando-vn mirror of Vietnam Administrative Merger Atlas"},"geometry":{"type":"Point","coordinates":[105.67148552619412,22.6576084431277]}},{"type":"Feature","id":"diaphanhanhchinhcapxa_2025.1173","properties":{"id":"diaphanhanhchinhcapxa_2025.1173","code":"01942","name":"Xã Bằng Vân","level":"commune","parent_code":"19","parent_name":"Tỉnh Thái Nguyên","label_lon":106.05232648204412,"label_lat":22.507984989585211,"source_date":"2026-04-16","source_name":"sapnhap-bando-vn mirror of Vietnam Administrative Merger Atlas"},"geometry":{"type":"Point","coordinates":[106.05232648204412,22.507984989585211]}},{"type":"Feature","id":"diaphanhanhchinhcapxa_2025.1217","properties":{"id":"diaphanhanhchinhcapxa_2025.1217","code":"05605","name":"Xã Bình Thành","level":"commune","parent_code":"19","parent_name":"Tỉnh Thái Nguyên","label_lon":105.57141869671617,"label_lat":21.787794831955978,"source_date":"2026-04-16","source_name":"sapnhap-bando-vn mirror of Vietnam Administrative Merger Atlas"},"geometry":{"type":"Point","coordinates":[105.57141869671617,21.787794831955978]}},{"type":"Feature","id":"diaphanhanhchinhcapxa_2025.1200","properties":{"id":"diaphanhanhchinhcapxa_2025.1200","code":"05587","name":"Xã Bình Yên","level":"commune","parent_code":"19","parent_name":"Tỉnh Thái Nguyên","label_lon":105.57288805949518,"label_lat":21.859733588995745,"source_date":"2026-04-16","source_name":"sapnhap-bando-vn mirror of Vietnam Administrative Merger Atlas"},"geometry":{"type":"Point","coordinates":[105.57288805949518,21.859733588995745]}},{"type":"Feature","id":"diaphanhanhchinhcapxa_2025.1177","properties":{"id":"diaphanhanhchinhcapxa_2025.1177","code":"02008","name":"Xã Cẩm Giàng","level":"commune","parent_code":"19","parent_name":"Tỉnh Thái Nguyên","label_lon":105.8951483671086,"label_lat":22.188066526976232,"source_date":"2026-04-16","source_name":"sapnhap-bando-vn mirror of Vietnam Administrative Merger Atlas"},"geometry":{"type":"Point","coordinates":[105.8951483671086,22.188066526976232]}},{"type":"Feature","id":"diaphanhanhchinhcapxa_2025.1165","properties":{"id":"diaphanhanhchinhcapxa_2025.1165","code":"01879","name":"Xã Cao Minh","level":"commune","parent_code":"19","parent_name":"Tỉnh Thái Nguyên","label_lon":105.6059830727766,"label_lat":22.568647132340033,"source_date":"2026-04-16","source_name":"sapnhap-bando-vn mirror of Vietnam Administrative Merger Atlas"},"geometry":{"type":"Point","coordinates":[105.6059830727766,22.568647132340033]}},{"type":"Feature","id":"diaphanhanhchinhcapxa_2025.1178","properties":{"id":"diaphanhanhchinhcapxa_2025.1178","code":"02020","name":"Xã Chợ Đồn","level":"commune","parent_code":"19","parent_name":"Tỉnh Thái Nguyên","label_lon":105.59484307705776,"label_lat":22.17307935149007,"source_date":"2026-04-16","source_name":"sapnhap-bando-vn mirror of Vietnam Administrative Merger Atlas"},"geometry":{"type":"Point","coordinates":[105.59484307705776,22.17307935149007]}},{"type":"Feature","id":"diaphanhanhchinhcapxa_2025.1242","properties":{"id":"diaphanhanhchinhcapxa_2025.1242","code":"02086","name":"Xã Chợ Mới","level":"commune","parent_code":"19","parent_name":"Tỉnh Thái Nguyên","label_lon":105.82319037928276,"label_lat":21.876924554372817,"source_date":"2026-04-16","source_name":"sapnhap-bando-vn mirror of Vietnam Administrative Merger Atlas"},"geometry":{"type":"Point","coordinates":[105.82319037928276,21.876924554372817]}},{"type":"Feature","id":"diaphanhanhchinhcapxa_2025.1167","properties":{"id":"diaphanhanhchinhcapxa_2025.1167","code":"01912","name":"Xã Chợ Rã","level":"commune","parent_code":"19","parent_name":"Tỉnh Thái Nguyên","label_lon":105.72616248150079,"label_lat":22.43951136991009,"source_date":"2026-04-16","source_name":"sapnhap-bando-vn mirror of Vietnam Administrative Merger Atlas"},"geometry":{"type":"Point","coordinates":[105.72616248150079,22.43951136991009]}},{"type":"Feature","id":"diaphanhanhchinhcapxa_2025.1249","properties":{"id":"diaphanhanhchinhcapxa_2025.1249","code":"02185","name":"Xã Côn Minh","level":"commune","parent_code":"19","parent_name":"Tỉnh Thái Nguyên","label_lon":106.02460770290996,"label_lat":22.103782644481221,"source_date":"2026-04-16","source_name":"sapnhap-bando-vn mirror of Vietnam Administrative Merger Atlas"},"geometry":{"type":"Point","coordinates":[106.02460770290996,22.103782644481221]}},{"type":"Feature","id":"diaphanhanhchinhcapxa_2025.1248","properties":{"id":"diaphanhanhchinhcapxa_2025.1248","code":"02152","name":"Xã Cường Lợi","level":"commune","parent_code":"19","parent_name":"Tỉnh Thái Nguyên","label_lon":106.17331491757112,"label_lat":22.315087186586695,"source_date":"2026-04-16","source_name":"sapnhap-bando-vn mirror of Vietnam Administrative Merger Atlas"},"geometry":{"type":"Point","coordinates":[106.17331491757112,22.315087186586695]}},{"type":"Feature","id":"diaphanhanhchinhcapxa_2025.1188","properties":{"id":"diaphanhanhchinhcapxa_2025.1188","code":"05488","name":"Xã Đại Phúc","level":"commune","parent_code":"19","parent_name":"Tỉnh Thái Nguyên","label_lon":105.70945168148492,"label_lat":21.576501860792089,"source_date":"2026-04-16","source_name":"sapnhap-bando-vn mirror of Vietnam Administrative Merger Atlas"},"geometry":{"type":"Point","coordinates":[105.70945168148492,21.576501860792089]}},{"type":"Feature","id":"diaphanhanhchinhcapxa_2025.1197","properties":{"id":"diaphanhanhchinhcapxa_2025.1197","code":"05830","name":"Xã Đại Từ","level":"commune","parent_code":"19","parent_name":"Tỉnh Thái Nguyên","label_lon":105.60822552410249,"label_lat":21.5904983258922,"source_date":"2026-04-16","source_name":"sapnhap-bando-vn mirror of Vietnam Administrative Merger Atlas"},"geometry":{"type":"Point","coordinates":[105.60822552410249,21.5904983258922]}},{"type":"Feature","id":"diaphanhanhchinhcapxa_2025.1223","properties":{"id":"diaphanhanhchinhcapxa_2025.1223","code":"05755","name":"Xã Dân Tiến","level":"commune","parent_code":"19","parent_name":"Tỉnh Thái Nguyên","label_lon":106.16331645052988,"label_lat":21.676708703893262,"source_date":"2026-04-16","source_name":"sapnhap-bando-vn mirror of Vietnam Administrative Merger Atlas"},"geometry":{"type":"Point","coordinates":[106.16331645052988,21.676708703893262]}},{"type":"Feature","id":"diaphanhanhchinhcapxa_2025.1238","properties":{"id":"diaphanhanhchinhcapxa_2025.1238","code":"05941","name":"Xã Điềm Thụy","level":"commune","parent_code":"19","parent_name":"Tỉnh Thái Nguyên","label_lon":105.9211878584133,"label_lat":21.45674311767247,"source_date":"2026-04-16","source_name":"sapnhap-bando-vn mirror of Vietnam Administrative Merger Atlas"},"geometry":{"type":"Point","coordinates":[105.9211878584133,21.45674311767247]}},{"type":"Feature","id":"diaphanhanhchinhcapxa_2025.1204","properties":{"id":"diaphanhanhchinhcapxa_2025.1204","code":"05569","name":"Xã Định Hóa","level":"commune","parent_code":"19","parent_name":"Tỉnh Thái Nguyên","label_lon":105.59381068303922,"label_lat":21.910133134599711,"source_date":"2026-04-16","source_name":"sapnhap-bando-vn mirror of Vietnam Administrative Merger Atlas"},"geometry":{"type":"Point","coordinates":[105.59381068303922,21.910133134599711]}},{"type":"Feature","id":"diaphanhanhchinhcapxa_2025.1225","properties":{"id":"diaphanhanhchinhcapxa_2025.1225","code":"05692","name":"Xã Đồng Hỷ","level":"commune","parent_code":"19","parent_name":"Tỉnh Thái Nguyên","label_lon":105.8337113033312,"label_lat":21.673241630487482,"source_date":"2026-04-16","source_name":"sapnhap-bando-vn mirror of Vietnam Administrative Merger Atlas"},"geometry":{"type":"Point","coordinates":[105.8337113033312,21.673241630487482]}},{"type":"Feature","id":"diaphanhanhchinhcapxa_2025.1171","properties":{"id":"diaphanhanhchinhcapxa_2025.1171","code":"01933","name":"Xã Đồng Phúc","level":"commune","parent_code":"19","parent_name":"Tỉnh Thái Nguyên","label_lon":105.70049987893226,"label_lat":22.312467902703293,"source_date":"2026-04-16","source_name":"sapnhap-bando-vn mirror of Vietnam Administrative Merger Atlas"},"geometry":{"type":"Point","coordinates":[105.70049987893226,22.312467902703293]}},{"type":"Feature","id":"diaphanhanhchinhcapxa_2025.1199","properties":{"id":"diaphanhanhchinhcapxa_2025.1199","code":"05776","name":"Xã Đức Lương","level":"commune","parent_code":"19","parent_name":"Tỉnh Thái Nguyên","label_lon":105.58809520389821,"label_lat":21.739302915444796,"source_date":"2026-04-16","source_name":"sapnhap-bando-vn mirror of Vietnam Administrative Merger Atlas"},"geometry":{"type":"Point","coordinates":[105.58809520389821,21.739302915444796]}},{"type":"Feature","id":"diaphanhanhchinhcapxa_2025.1175","properties":{"id":"diaphanhanhchinhcapxa_2025.1175","code":"01960","name":"Xã Hiệp Lực","level":"commune","parent_code":"19","parent_name":"Tỉnh Thái Nguyên","label_lon":105.96800076421157,"label_lat":22.327320121275381,"source_date":"2026-04-16","source_name":"sapnhap-bando-vn mirror of Vietnam Administrative Merger Atlas"},"geometry":{"type":"Point","coordinates":[105.96800076421157,22.327320121275381]}},{"type":"Feature","id":"diaphanhanhchinhcapxa_2025.1209","properties":{"id":"diaphanhanhchinhcapxa_2025.1209","code":"05632","name":"Xã Hợp Thành","level":"commune","parent_code":"19","parent_name":"Tỉnh Thái Nguyên","label_lon":105.66010305259741,"label_lat":21.767423022396461,"source_date":"2026-04-16","source_name":"sapnhap-bando-vn mirror of Vietnam Administrative Merger Atlas"},"geometry":{"type":"Point","coordinates":[105.66010305259741,21.767423022396461]}},{"type":"Feature","id":"diaphanhanhchinhcapxa_2025.1239","properties":{"id":"diaphanhanhchinhcapxa_2025.1239","code":"05953","name":"Xã Kha Sơn","level":"commune","parent_code":"19","parent_name":"Tỉnh Thái Nguyên","label_lon":106.00923421476196,"label_lat":21.432976827868742,"source_date":"2026-04-16","source_name":"sapnhap-bando-vn mirror of Vietnam Administrative Merger Atlas"},"geometry":{"type":"Point","coordinates":[106.00923421476196,21.432976827868742]}},{"type":"Feature","id":"diaphanhanhchinhcapxa_2025.1216","properties":{"id":"diaphanhanhchinhcapxa_2025.1216","code":"05551","name":"Xã Kim Phượng","level":"commune","parent_code":"19","parent_name":"Tỉnh Thái Nguyên","label_lon":105.62632340043042,"label_lat":21.96696621447785,"source_date":"2026-04-16","source_name":"sapnhap-bando-vn mirror of Vietnam Administrative Merger Atlas"},"geometry":{"type":"Point","coordinates":[105.62632340043042,21.96696621447785]}},{"type":"Feature","id":"diaphanhanhchinhcapxa_2025.1196","properties":{"id":"diaphanhanhchinhcapxa_2025.1196","code":"05818","name":"Xã La Bằng","level":"commune","parent_code":"19","parent_name":"Tỉnh Thái Nguyên","label_lon":105.56142246474242,"label_lat":21.622526860536819,"source_date":"2026-04-16","source_name":"sapnhap-bando-vn mirror of Vietnam Administrative Merger Atlas"},"geometry":{"type":"Point","coordinates":[105.56142246474242,21.622526860536819]}},{"type":"Feature","id":"diaphanhanhchinhcapxa_2025.1221","properties":{"id":"diaphanhanhchinhcapxa_2025.1221","code":"05740","name":"Xã La Hiên","level":"commune","parent_code":"19","parent_name":"Tỉnh Thái Nguyên","label_lon":105.94826322472,"label_lat":21.7415638214841,"source_date":"2026-04-16","source_name":"sapnhap-bando-vn mirror of Vietnam Administrative Merger Atlas"},"geometry":{"type":"Point","coordinates":[105.94826322472,21.7415638214841]}},{"type":"Feature","id":"diaphanhanhchinhcapxa_2025.1215","properties":{"id":"diaphanhanhchinhcapxa_2025.1215","code":"05542","name":"Xã Lam Vỹ","level":"commune","parent_code":"19","parent_name":"Tỉnh Thái Nguyên","label_lon":105.69119401406958,"label_lat":21.997841919598478,"source_date":"2026-04-16","source_name":"sapnhap-bando-vn mirror of Vietnam Administrative Merger Atlas"},"geometry":{"type":"Point","coordinates":[105.69119401406958,21.997841919598478]}},{"type":"Feature","id":"diaphanhanhchinhcapxa_2025.1172","properties":{"id":"diaphanhanhchinhcapxa_2025.1172","code":"01936","name":"Xã Nà Phặc","level":"commune","parent_code":"19","parent_name":"Tỉnh Thái Nguyên","label_lon":105.90426705272505,"label_lat":22.401968966398385,"source_date":"2026-04-16","source_name":"sapnhap-bando-vn mirror of Vietnam Administrative Merger Atlas"},"geometry":{"type":"Point","coordinates":[105.90426705272505,22.401968966398385]}},{"type":"Feature","id":"diaphanhanhchinhcapxa_2025.1246","properties":{"id":"diaphanhanhchinhcapxa_2025.1246","code":"02155","name":"Xã Na Rì","level":"commune","parent_code":"19","parent_name":"Tỉnh Thái Nguyên","label_lon":106.17933781797038,"label_lat":22.215151632623854,"source_date":"2026-04-16","source_name":"sapnhap-bando-vn mirror of Vietnam Administrative Merger Atlas"},"geometry":{"type":"Point","coordinates":[106.17933781797038,22.215151632623854]}},{"type":"Feature","id":"diaphanhanhchinhcapxa_2025.1179","properties":{"id":"diaphanhanhchinhcapxa_2025.1179","code":"02026","name":"Xã Nam Cường","level":"commune","parent_code":"19","parent_name":"Tỉnh Thái Nguyên","label_lon":105.5636118332332,"label_lat":22.343657804081609,"source_date":"2026-04-16","source_name":"sapnhap-bando-vn mirror of Vietnam Administrative Merger Atlas"},"geometry":{"type":"Point","coordinates":[105.5636118332332,22.343657804081609]}},{"type":"Feature","id":"diaphanhanhchinhcapxa_2025.1213","properties":{"id":"diaphanhanhchinhcapxa_2025.1213","code":"05707","name":"Xã Nam Hòa","level":"commune","parent_code":"19","parent_name":"Tỉnh Thái Nguyên","label_lon":105.96439069861448,"label_lat":21.626144817104738,"source_date":"2026-04-16","source_name":"sapnhap-bando-vn mirror of Vietnam Administrative Merger Atlas"},"geometry":{"type":"Point","coordinates":[105.96439069861448,21.626144817104738]}},{"type":"Feature","id":"diaphanhanhchinhcapxa_2025.1174","properties":{"id":"diaphanhanhchinhcapxa_2025.1174","code":"01954","name":"Xã Ngân Sơn","level":"commune","parent_code":"19","parent_name":"Tỉnh Thái Nguyên","label_lon":105.98240279757523,"label_lat":22.462575674856197,"source_date":"2026-04-16","source_name":"sapnhap-bando-vn mirror of Vietnam Administrative Merger Atlas"},"geometry":{"type":"Point","coordinates":[105.98240279757523,22.462575674856197]}},{"type":"Feature","id":"diaphanhanhchinhcapxa_2025.1183","properties":{"id":"diaphanhanhchinhcapxa_2025.1183","code":"02071","name":"Xã Nghĩa Tá","level":"commune","parent_code":"19","parent_name":"Tỉnh Thái Nguyên","label_lon":105.52744822721228,"label_lat":22.05298815507556,"source_date":"2026-04-16","source_name":"sapnhap-bando-vn mirror of Vietnam Administrative Merger Atlas"},"geometry":{"type":"Point","coordinates":[105.52744822721228,22.05298815507556]}},{"type":"Feature","id":"diaphanhanhchinhcapxa_2025.1166","properties":{"id":"diaphanhanhchinhcapxa_2025.1166","code":"01882","name":"Xã Nghiên Loan","level":"commune","parent_code":"19","parent_name":"Tỉnh Thái Nguyên","label_lon":105.72197546192564,"label_lat":22.552656616698219,"source_date":"2026-04-16","source_name":"sapnhap-bando-vn mirror of Vietnam Administrative Merger Atlas"},"geometry":{"type":"Point","coordinates":[105.72197546192564,22.552656616698219]}},{"type":"Feature","id":"diaphanhanhchinhcapxa_2025.1219","properties":{"id":"diaphanhanhchinhcapxa_2025.1219","code":"05722","name":"Xã Nghinh Tường","level":"commune","parent_code":"19","parent_name":"Tỉnh Thái Nguyên","label_lon":106.06047998896182,"label_lat":21.849148920194281,"source_date":"2026-04-16","source_name":"sapnhap-bando-vn mirror of Vietnam Administrative Merger Atlas"},"geometry":{"type":"Point","coordinates":[106.06047998896182,21.849148920194281]}},{"type":"Feature","id":"diaphanhanhchinhcapxa_2025.1254","properties":{"id":"diaphanhanhchinhcapxa_2025.1254","code":"01849","name":"Xã Phong Quang","level":"commune","parent_code":"19","parent_name":"Tỉnh Thái Nguyên","label_lon":105.75554753089064,"label_lat":22.20377099319245,"source_date":"2026-04-16","source_name":"sapnhap-bando-vn mirror of Vietnam Administrative Merger Atlas"},"geometry":{"type":"Point","coordinates":[105.75554753089064,22.20377099319245]}},{"type":"Feature","id":"diaphanhanhchinhcapxa_2025.1235","properties":{"id":"diaphanhanhchinhcapxa_2025.1235","code":"05908","name":"Xã Phú Bình","level":"commune","parent_code":"19","parent_name":"Tỉnh Thái Nguyên","label_lon":105.95550865606742,"label_lat":21.47347530420523,"source_date":"2026-04-16","source_name":"sapnhap-bando-vn mirror of Vietnam Administrative Merger Atlas"},"geometry":{"type":"Point","coordinates":[105.95550865606742,21.47347530420523]}},{"type":"Feature","id":"diaphanhanhchinhcapxa_2025.1207","properties":{"id":"diaphanhanhchinhcapxa_2025.1207","code":"05602","name":"Xã Phú Đình","level":"commune","parent_code":"19","parent_name":"Tỉnh Thái Nguyên","label_lon":105.52829312139332,"label_lat":21.808941938834511,"source_date":"2026-04-16","source_name":"sapnhap-bando-vn mirror of Vietnam Administrative Merger Atlas"},"geometry":{"type":"Point","coordinates":[105.52829312139332,21.808941938834511]}},{"type":"Feature","id":"diaphanhanhchinhcapxa_2025.1194","properties":{"id":"diaphanhanhchinhcapxa_2025.1194","code":"05788","name":"Xã Phú Lạc","level":"commune","parent_code":"19","parent_name":"Tỉnh Thái Nguyên","label_lon":105.65225478032504,"label_lat":21.683790851499257,"source_date":"2026-04-16","source_name":"sapnhap-bando-vn mirror of Vietnam Administrative Merger Atlas"},"geometry":{"type":"Point","coordinates":[105.65225478032504,21.683790851499257]}},{"type":"Feature","id":"diaphanhanhchinhcapxa_2025.1214","properties":{"id":"diaphanhanhchinhcapxa_2025.1214","code":"05611","name":"Xã Phú Lương","level":"commune","parent_code":"19","parent_name":"Tỉnh Thái Nguyên","label_lon":105.72590257962358,"label_lat":21.744035215161489,"source_date":"2026-04-16","source_name":"sapnhap-bando-vn mirror of Vietnam Administrative Merger Atlas"},"geometry":{"type":"Point","coordinates":[105.72590257962358,21.744035215161489]}},{"type":"Feature","id":"diaphanhanhchinhcapxa_2025.1195","properties":{"id":"diaphanhanhchinhcapxa_2025.1195","code":"05800","name":"Xã Phú Thịnh","level":"commune","parent_code":"19","parent_name":"Tỉnh Thái Nguyên","label_lon":105.57477706726029,"label_lat":21.688127945673397,"source_date":"2026-04-16","source_name":"sapnhap-bando-vn mirror of Vietnam Administrative Merger Atlas"},"geometry":{"type":"Point","coordinates":[105.57477706726029,21.688127945673397]}},{"type":"Feature","id":"diaphanhanhchinhcapxa_2025.1176","properties":{"id":"diaphanhanhchinhcapxa_2025.1176","code":"01969","name":"Xã Phủ Thông","level":"commune","parent_code":"19","parent_name":"Tỉnh Thái Nguyên","label_lon":105.85147122439736,"label_lat":22.26732309090611,"source_date":"2026-04-16","source_name":"sapnhap-bando-vn mirror of Vietnam Administrative Merger Atlas"},"geometry":{"type":"Point","coordinates":[105.85147122439736,22.26732309090611]}},{"type":"Feature","id":"diaphanhanhchinhcapxa_2025.1228","properties":{"id":"diaphanhanhchinhcapxa_2025.1228","code":"05773","name":"Xã Phú Xuyên","level":"commune","parent_code":"19","parent_name":"Tỉnh Thái Nguyên","label_lon":105.5200052706918,"label_lat":21.675817316104578,"source_date":"2026-04-16","source_name":"sapnhap-bando-vn mirror of Vietnam Administrative Merger Atlas"},"geometry":{"type":"Point","coordinates":[105.5200052706918,21.675817316104578]}},{"type":"Feature","id":"diaphanhanhchinhcapxa_2025.1168","properties":{"id":"diaphanhanhchinhcapxa_2025.1168","code":"01894","name":"Xã Phúc Lộc","level":"commune","parent_code":"19","parent_name":"Tỉnh Thái Nguyên","label_lon":105.82466027864602,"label_lat":22.471240598879746,"source_date":"2026-04-16","source_name":"sapnhap-bando-vn mirror of Vietnam Administrative Merger Atlas"},"geometry":{"type":"Point","coordinates":[105.82466027864602,22.471240598879746]}},{"type":"Feature","id":"diaphanhanhchinhcapxa_2025.1205","properties":{"id":"diaphanhanhchinhcapxa_2025.1205","code":"05563","name":"Xã Phượng Tiến","level":"commune","parent_code":"19","parent_name":"Tỉnh Thái Nguyên","label_lon":105.70945713949392,"label_lat":21.924651166133252,"source_date":"2026-04-16","source_name":"sapnhap-bando-vn mirror of Vietnam Administrative Merger Atlas"},"geometry":{"type":"Point","coordinates":[105.70945713949392,21.924651166133252]}},{"type":"Feature","id":"diaphanhanhchinhcapxa_2025.1193","properties":{"id":"diaphanhanhchinhcapxa_2025.1193","code":"05851","name":"Xã Quân Chu","level":"commune","parent_code":"19","parent_name":"Tỉnh Thái Nguyên","label_lon":105.68140522291624,"label_lat":21.492161535969636,"source_date":"2026-04-16","source_name":"sapnhap-bando-vn mirror of Vietnam Administrative Merger Atlas"},"geometry":{"type":"Point","coordinates":[105.68140522291624,21.492161535969636]}},{"type":"Feature","id":"diaphanhanhchinhcapxa_2025.1180","properties":{"id":"diaphanhanhchinhcapxa_2025.1180","code":"02038","name":"Xã Quảng Bạch","level":"commune","parent_code":"19","parent_name":"Tỉnh Thái Nguyên","label_lon":105.60386748595744,"label_lat":22.269197467952718,"source_date":"2026-04-16","source_name":"sapnhap-bando-vn mirror of Vietnam Administrative Merger Atlas"},"geometry":{"type":"Point","coordinates":[105.60386748595744,22.269197467952718]}},{"type":"Feature","id":"diaphanhanhchinhcapxa_2025.1227","properties":{"id":"diaphanhanhchinhcapxa_2025.1227","code":"05674","name":"Xã Quang Sơn","level":"commune","parent_code":"19","parent_name":"Tỉnh Thái Nguyên","label_lon":105.87775945711564,"label_lat":21.735013402759932,"source_date":"2026-04-16","source_name":"sapnhap-bando-vn mirror of Vietnam Administrative Merger Atlas"},"geometry":{"type":"Point","coordinates":[105.87775945711564,21.735013402759932]}},{"type":"Feature","id":"diaphanhanhchinhcapxa_2025.1224","properties":{"id":"diaphanhanhchinhcapxa_2025.1224","code":"05719","name":"Xã Sảng Mộc","level":"commune","parent_code":"19","parent_name":"Tỉnh Thái Nguyên","label_lon":106.0038042113772,"label_lat":21.901805519030084,"source_date":"2026-04-16","source_name":"sapnhap-bando-vn mirror of Vietnam Administrative Merger Atlas"},"geometry":{"type":"Point","coordinates":[106.0038042113772,21.901805519030084]}},{"type":"Feature","id":"diaphanhanhchinhcapxa_2025.1191","properties":{"id":"diaphanhanhchinhcapxa_2025.1191","code":"05503","name":"Xã Tân Cương","level":"commune","parent_code":"19","parent_name":"Tỉnh Thái Nguyên","label_lon":105.78692442250916,"label_lat":21.519416233891825,"source_date":"2026-04-16","source_name":"sapnhap-bando-vn mirror of Vietnam Administrative Merger Atlas"},"geometry":{"type":"Point","coordinates":[105.78692442250916,21.519416233891825]}},{"type":"Feature","id":"diaphanhanhchinhcapxa_2025.1236","properties":{"id":"diaphanhanhchinhcapxa_2025.1236","code":"05917","name":"Xã Tân Khánh","level":"commune","parent_code":"19","parent_name":"Tỉnh Thái Nguyên","label_lon":105.94054501013647,"label_lat":21.54460197899612,"source_date":"2026-04-16","source_name":"sapnhap-bando-vn mirror of Vietnam Administrative Merger Atlas"},"geometry":{"type":"Point","coordinates":[105.94054501013647,21.54460197899612]}},{"type":"Feature","id":"diaphanhanhchinhcapxa_2025.1243","properties":{"id":"diaphanhanhchinhcapxa_2025.1243","code":"02104","name":"Xã Tân Kỳ","level":"commune","parent_code":"19","parent_name":"Tỉnh Thái Nguyên","label_lon":105.89759376681,"label_lat":22.048057044409703,"source_date":"2026-04-16","source_name":"sapnhap-bando-vn mirror of Vietnam Administrative Merger Atlas"},"geometry":{"type":"Point","coordinates":[105.89759376681,22.048057044409703]}},{"type":"Feature","id":"diaphanhanhchinhcapxa_2025.1237","properties":{"id":"diaphanhanhchinhcapxa_2025.1237","code":"05923","name":"Xã Tân Thành","level":"commune","parent_code":"19","parent_name":"Tỉnh Thái Nguyên","label_lon":106.00586278094691,"label_lat":21.505760908074009,"source_date":"2026-04-16","source_name":"sapnhap-bando-vn mirror of Vietnam Administrative Merger Atlas"},"geometry":{"type":"Point","coordinates":[106.00586278094691,21.505760908074009]}},{"type":"Feature","id":"diaphanhanhchinhcapxa_2025.1220","properties":{"id":"diaphanhanhchinhcapxa_2025.1220","code":"05725","name":"Xã Thần Sa","level":"commune","parent_code":"19","parent_name":"Tỉnh Thái Nguyên","label_lon":105.9243853054958,"label_lat":21.828721992178561,"source_date":"2026-04-16","source_name":"sapnhap-bando-vn mirror of Vietnam Administrative Merger Atlas"},"geometry":{"type":"Point","coordinates":[105.9243853054958,21.828721992178561]}},{"type":"Feature","id":"diaphanhanhchinhcapxa_2025.1233","properties":{"id":"diaphanhanhchinhcapxa_2025.1233","code":"05881","name":"Xã Thành Công","level":"commune","parent_code":"19","parent_name":"Tỉnh Thái Nguyên","label_lon":105.79304256946844,"label_lat":21.398231700330015,"source_date":"2026-04-16","source_name":"sapnhap-bando-vn mirror of Vietnam Administrative Merger Atlas"},"geometry":{"type":"Point","coordinates":[105.79304256946844,21.398231700330015]}},{"type":"Feature","id":"diaphanhanhchinhcapxa_2025.1244","properties":{"id":"diaphanhanhchinhcapxa_2025.1244","code":"02101","name":"Xã Thanh Mai","level":"commune","parent_code":"19","parent_name":"Tỉnh Thái Nguyên","label_lon":105.75909310930626,"label_lat":22.056121019894075,"source_date":"2026-04-16","source_name":"sapnhap-bando-vn mirror of Vietnam Administrative Merger Atlas"},"geometry":{"type":"Point","coordinates":[105.75909310930626,22.056121019894075]}},{"type":"Feature","id":"diaphanhanhchinhcapxa_2025.1245","properties":{"id":"diaphanhanhchinhcapxa_2025.1245","code":"02107","name":"Xã Thanh Thịnh","level":"commune","parent_code":"19","parent_name":"Tỉnh Thái Nguyên","label_lon":105.82100705439382,"label_lat":21.96330534138735,"source_date":"2026-04-16","source_name":"sapnhap-bando-vn mirror of Vietnam Administrative Merger Atlas"},"geometry":{"type":"Point","coordinates":[105.82100705439382,21.96330534138735]}},{"type":"Feature","id":"diaphanhanhchinhcapxa_2025.1170","properties":{"id":"diaphanhanhchinhcapxa_2025.1170","code":"01921","name":"Xã Thượng Minh","level":"commune","parent_code":"19","parent_name":"Tỉnh Thái Nguyên","label_lon":105.81162160997371,"label_lat":22.353552226663641,"source_date":"2026-04-16","source_name":"sapnhap-bando-vn mirror of Vietnam Administrative Merger Atlas"},"geometry":{"type":"Point","coordinates":[105.81162160997371,22.353552226663641]}},{"type":"Feature","id":"diaphanhanhchinhcapxa_2025.1255","properties":{"id":"diaphanhanhchinhcapxa_2025.1255","code":"01957","name":"Xã Thượng Quan","level":"commune","parent_code":"19","parent_name":"Tỉnh Thái Nguyên","label_lon":106.05932299748213,"label_lat":22.377918126562378,"source_date":"2026-04-16","source_name":"sapnhap-bando-vn mirror of Vietnam Administrative Merger Atlas"},"geometry":{"type":"Point","coordinates":[106.05932299748213,22.377918126562378]}},{"type":"Feature","id":"diaphanhanhchinhcapxa_2025.1226","properties":{"id":"diaphanhanhchinhcapxa_2025.1226","code":"05662","name":"Xã Trại Cau","level":"commune","parent_code":"19","parent_name":"Tỉnh Thái Nguyên","label_lon":106.01074962607956,"label_lat":21.588882149872425,"source_date":"2026-04-16","source_name":"sapnhap-bando-vn mirror of Vietnam Administrative Merger Atlas"},"geometry":{"type":"Point","coordinates":[106.01074962607956,21.588882149872425]}},{"type":"Feature","id":"diaphanhanhchinhcapxa_2025.1250","properties":{"id":"diaphanhanhchinhcapxa_2025.1250","code":"02176","name":"Xã Trần Phú","level":"commune","parent_code":"19","parent_name":"Tỉnh Thái Nguyên","label_lon":106.11864302779411,"label_lat":22.139975100640068,"source_date":"2026-04-16","source_name":"sapnhap-bando-vn mirror of Vietnam Administrative Merger Atlas"},"geometry":{"type":"Point","coordinates":[106.11864302779411,22.139975100640068]}},{"type":"Feature","id":"diaphanhanhchinhcapxa_2025.1222","properties":{"id":"diaphanhanhchinhcapxa_2025.1222","code":"05746","name":"Xã Tràng Xá","level":"commune","parent_code":"19","parent_name":"Tỉnh Thái Nguyên","label_lon":106.06337775529116,"label_lat":21.688847941616629,"source_date":"2026-04-16","source_name":"sapnhap-bando-vn mirror of Vietnam Administrative Merger Atlas"},"geometry":{"type":"Point","coordinates":[106.06337775529116,21.688847941616629]}},{"type":"Feature","id":"diaphanhanhchinhcapxa_2025.1206","properties":{"id":"diaphanhanhchinhcapxa_2025.1206","code":"05581","name":"Xã Trung Hội","level":"commune","parent_code":"19","parent_name":"Tỉnh Thái Nguyên","label_lon":105.63364127924876,"label_lat":21.822050592908418,"source_date":"2026-04-16","source_name":"sapnhap-bando-vn mirror of Vietnam Administrative Merger Atlas"},"geometry":{"type":"Point","coordinates":[105.63364127924876,21.822050592908418]}},{"type":"Feature","id":"diaphanhanhchinhcapxa_2025.1212","properties":{"id":"diaphanhanhchinhcapxa_2025.1212","code":"05680","name":"Xã Văn Hán","level":"commune","parent_code":"19","parent_name":"Tỉnh Thái Nguyên","label_lon":105.929179489909,"label_lat":21.664451663235905,"source_date":"2026-04-16","source_name":"sapnhap-bando-vn mirror of Vietnam Administrative Merger Atlas"},"geometry":{"type":"Point","coordinates":[105.929179489909,21.664451663235905]}},{"type":"Feature","id":"diaphanhanhchinhcapxa_2025.1247","properties":{"id":"diaphanhanhchinhcapxa_2025.1247","code":"02143","name":"Xã Văn Lang","level":"commune","parent_code":"19","parent_name":"Tỉnh Thái Nguyên","label_lon":106.06066149261426,"label_lat":22.25855188266495,"source_date":"2026-04-16","source_name":"sapnhap-bando-vn mirror of Vietnam Administrative Merger Atlas"},"geometry":{"type":"Point","coordinates":[106.06066149261426,22.25855188266495]}},{"type":"Feature","id":"diaphanhanhchinhcapxa_2025.1211","properties":{"id":"diaphanhanhchinhcapxa_2025.1211","code":"05665","name":"Xã Văn Lăng","level":"commune","parent_code":"19","parent_name":"Tỉnh Thái Nguyên","label_lon":105.8293672092976,"label_lat":21.785725308762444,"source_date":"2026-04-16","source_name":"sapnhap-bando-vn mirror of Vietnam Administrative Merger Atlas"},"geometry":{"type":"Point","coordinates":[105.8293672092976,21.785725308762444]}},{"type":"Feature","id":"diaphanhanhchinhcapxa_2025.1229","properties":{"id":"diaphanhanhchinhcapxa_2025.1229","code":"05845","name":"Xã Vạn Phú","level":"commune","parent_code":"19","parent_name":"Tỉnh Thái Nguyên","label_lon":105.63689625408875,"label_lat":21.549675711258303,"source_date":"2026-04-16","source_name":"sapnhap-bando-vn mirror of Vietnam Administrative Merger Atlas"},"geometry":{"type":"Point","coordinates":[105.63689625408875,21.549675711258303]}},{"type":"Feature","id":"diaphanhanhchinhcapxa_2025.1252","properties":{"id":"diaphanhanhchinhcapxa_2025.1252","code":"01981","name":"Xã Vĩnh Thông","level":"commune","parent_code":"19","parent_name":"Tỉnh Thái Nguyên","label_lon":105.96997919038564,"label_lat":22.219731972249345,"source_date":"2026-04-16","source_name":"sapnhap-bando-vn mirror of Vietnam Administrative Merger Atlas"},"geometry":{"type":"Point","coordinates":[105.96997919038564,22.219731972249345]}},{"type":"Feature","id":"diaphanhanhchinhcapxa_2025.1218","properties":{"id":"diaphanhanhchinhcapxa_2025.1218","code":"05716","name":"Xã Võ Nhai","level":"commune","parent_code":"19","parent_name":"Tỉnh Thái Nguyên","label_lon":106.07499779801272,"label_lat":21.755064144472549,"source_date":"2026-04-16","source_name":"sapnhap-bando-vn mirror of Vietnam Administrative Merger Atlas"},"geometry":{"type":"Point","coordinates":[106.07499779801272,21.755064144472549]}},{"type":"Feature","id":"diaphanhanhchinhcapxa_2025.1210","properties":{"id":"diaphanhanhchinhcapxa_2025.1210","code":"05641","name":"Xã Vô Tranh","level":"commune","parent_code":"19","parent_name":"Tỉnh Thái Nguyên","label_lon":105.77151154182842,"label_lat":21.704378803896791,"source_date":"2026-04-16","source_name":"sapnhap-bando-vn mirror of Vietnam Administrative Merger Atlas"},"geometry":{"type":"Point","coordinates":[105.77151154182842,21.704378803896791]}},{"type":"Feature","id":"diaphanhanhchinhcapxa_2025.1251","properties":{"id":"diaphanhanhchinhcapxa_2025.1251","code":"02191","name":"Xã Xuân Dương","level":"commune","parent_code":"19","parent_name":"Tỉnh Thái Nguyên","label_lon":106.03405671827431,"label_lat":21.999321341266988,"source_date":"2026-04-16","source_name":"sapnhap-bando-vn mirror of Vietnam Administrative Merger Atlas"},"geometry":{"type":"Point","coordinates":[106.03405671827431,21.999321341266988]}},